,FMID,Market_Name,City,State,Lat,Lon
0,1018261, Caledonia Farmers Market Association - Danville,Danville,Vermont,44.411035999999996,-72.140337
1,1018318, Stearns Homestead Farmers' Market,Parma ,Ohio,41.3748009,-81.7339387
2,1009364,106 S. Main Street Farmers Market,Six Mile,South Carolina,34.8042,-82.8187
3,1010691,10th Steet Community Farmers Market,Lamar ,Missouri,37.495628,-94.2746191
4,1002454,112st Madison Avenue,New York,New York,40.7939,-73.9493
5,1011100,12 South Farmers Market,Nashville,Tennessee,36.11837,-86.79070899999999
6,1009845,125th Street Fresh Connect Farmers' Market,New York,New York,40.8089533,-73.94824770000001
7,1005586,12th & Brandywine Urban Farm Market,Wilmington,Delaware,39.742117,-75.53446
8,1008071,14&U Farmers' Market,Washington,District of Columbia,38.9169984,-77.0320505
9,1012710,14th & Kennedy Street Farmers Market,Washington ,District of Columbia,38.9559783,-77.03344859999999
10,1019157,16th Ave Farmers Market,Portland,Oregon,45.534498,-122.649446
11,1018792,170 Farm Stand,Bronx,New York,40.8398843,-73.91678409999999
12,1016782,175th Street Greenmarket,New York ,New York,40.846354,-73.93804899999999
13,1003877,17th Ave Market,Minneapolis,Minnesota,45.0044,-93.2591
14,1016784,17th Street Farmers Market,Richmond ,Virginia,37.53385,-77.428364
15,1010968,18th and Christian Farmers' Market,Philadelphia,Pennsylvania,39.940943,-75.17343100000001
16,1009994,18th Street Farmer's Market,Scottsbluff,Nebraska,41.864268,-103.662538
17,1018365,18th Street Farmers Market,Charleston ,Illinois,39.490714399999995,-88.1622392
18,1012790,19/27 Community Farmers Market,Chiefland,Florida,29.484854100000003,-82.85787320000001
19,1012158,21 Acres Farm Market,Woodinville,Washington,47.75023970000001,-122.1569875
20,1010873,21st Street Farmers Market,Topeka,Kansas,39.028184,-95.71451400000001
21,1005309,22nd and Tasker Farmers' Market,Philadelphia,Pennsylvania,39.932257,-75.181286
22,1000709,22nd Annual Highlands Business Partnership Farmers Market,Highlands,New Jersey,40.404837,-73.99435799999999
23,1011881,25th Street Market - North Logan at the Library Summer 2016,North Logan,Utah,41.778243700000004,-111.8206049
24,1010966,26th and Allegheny,Philadelphia,Pennsylvania,40.0040946,-75.17228829999999
25,1005299,29th and Wharton Farmers' Market,Philadelphia,Pennsylvania,39.9373,-75.19204
26,1010994,2nd Street Farmers' Market,Amherst,Virginia,37.583311,-79.048573
27,1009959,2nd Street Market - Five Rivers MetroPark,Dayton,Ohio,39.762593,-84.18103
28,1004950,3 French Hens French Country Market,Morris,Illinois,41.356383,-88.425186
29,1010775,30A Farmers' Market,Rosemary Beach,Florida,30.279017,-86.00275400000001
30,1018656,31 & Main Farmers Market at Campus Town,Ewing,New Jersey,40.268253,-74.783289
31,1005636,32nd Street/Waverly Farmers Market,Baltimore,Maryland,39.3272,-76.611
32,1005310,33rd and Diamond Farmers' Market,Philadelphia,Pennsylvania,39.988802,-75.187167
33,1018389,38th & Meridian Farmer's Market ,Indianapolis,Indiana,39.8255595,-86.1575468
34,1012280,39 North Marketplace,Sparks,Nevada,39.534773,-119.754962
35,1011213,441 Ministries Farm Stand,Rochester,New York,43.1658344,-77.5666043
36,1010965,4th and Lehigh Farmers' Market,Philadelphia,Pennsylvania,39.991748,-75.138654
37,1006234,4th Street Farmers Market,Larimer,Colorado,40.3954,-105.073
38,1006494,52 & Shadeland Avenue Farmers Market,Indianapolis,Indiana,39.8481,-86.0476
39,1005304,52nd and Haverford Farmers' Market,Philadelphia,Pennsylvania,39.965053999999995,-75.224492
40,1000060,57th Street Greenmarket,New York,New York,40.768159000000004,-73.985839
41,1005306,58th and Chester Farmers' Market,Philadelphia,Pennsylvania,39.935721,-75.228303
42,1018965,61st Street Farmers Market,Chicago,Illinois,41.784079,-87.59059140000001
43,1000061,79th Street Greenmarket,New York,New York,40.7818,-73.9757
44,1000062,82nd Street Greenmarket,New York,New York,40.773749,-73.95009
45,1008391,84 west farmers market (Dothan),Dothan,Alabama,31.232252000000003,-85.44994399999999
46,1001961,8th Avenue City Farmers Market,Cedar Rapids,Iowa,41.972837,-91.66265340000001
47,1000063,92nd Street Greenmarket,New York,New York,40.780931,-73.946421
48,1000064,97th Street Greenmarket,New York,New York,40.79356,-73.967012
49,1011989,9th and Grand Farmers Market,Salina,Kansas,38.8528359,-97.6117504
50,1000986,9th West Farmers Market/People's Market ,SALT LAKE CITY,Utah,40.7470177,-111.9195223
51,1010617,A + Organic Farmers Market,Boynton Beach ,Florida,26.489351,-80.221052
52,1009004,A Growers' Market,Tallahassee ,Florida,30.461953,-84.27987399999999
53,1007585,AAMC Farmers's Market,Annapolis,Maryland,39.006,-76.6123
54,1004573,Abbeville Farmers Market,Abbeville,South Carolina,34.177429,-82.38024200000001
55,1009028,ABBEVILLE FARMERS MARKET,Abbeville ,Alabama,31.571271000000003,-85.250365
56,1004598,Abbotsford Farmers Market,Abbotsford,Wisconsin,44.945665000000005,-90.30714499999999
57,1003865,Abbott Northwestern Farmers Market,Minneapolis,Minnesota,44.9556,-93.2629
58,1002947,Aberdeen Farmers Market,Aberdeen,South Dakota,45.4631,-98.4866
59,1019473,Aberdeen Sunday Market,Aberdeen,Washington,46.972972999999996,-123.81641299999998
60,1004031,Abilene Farmers Market,Abilene,Kansas,38.9153,-97.2139
61,1010487,Abingdon Farmers Market,Abingdon ,Virginia,36.708934,-81.977094
62,1000065,Abingdon Square Greenmarket,New York,New York,40.737177,-74.00528
63,1006988,Abington,Abington,Massachusetts,42.119,-70.9369
64,1007070,Abington Farmers Market,Clarks Summit,Pennsylvania,41.425,-75.7746
65,1019695,Abita Springs Art & Farmers Market ,Abita Springs ,Louisiana,30.479064,-90.038907
66,1004762,ABQ Uptown Growers' Market,Albququerque,New Mexico,35.103988,-106.56583799999999
67,1009543,ABV Farm Market,Mount Bethe,Pennsylvania,40.8743,-75.0998
68,1002108,Acadia Farmers' Market in Town Hill,Town Hill,Maine,44.5908,-68.9716
69,1007575,Acadiana Farmers Market,Opelousas,Louisiana,30.2147,-92.0634
70,1005122,Ace Farmers Market,Rome,New York,43.2098,-75.4541
71,1008461,Acme Ranch Truck Patch,Birch Tree,Missouri,36.991165,-91.492638
72,1011180,Acreage Green Market,Loxahatchee,Florida,26.775639,-80.263351
73,1003469,Acton-Boxborough Farmers Market,Acton,Massachusetts,42.47518,-71.47415
74,1018003,Acushnet Farmers Market,Acushnet,Massachusetts,41.7200523,-70.900856
75,1007519,Acworth Farmers Market,Acworth,Georgia,34.0657,-84.6767
76,1001393,Ada Farmer's Market,Ada,Oklahoma,34.773589,-96.679869
77,1001083,Ada Farmers' Market,Ada,Michigan,42.955371500000005,-85.4889683
78,1006969,AdairCo Farmers Market,Columbia,Kentucky,37.1043,-85.29700000000001
79,1010467,Adairsville Farmers' Market,Adairsville,Georgia,34.375727000000005,-84.929569
80,1019431,Adams County Farmer's Market,West Union,Ohio,38.795271,-83.546335
81,1019676,Adams County Farmers Market,Gettysburg,Pennsylvania,39.830597,-77.234147
82,1019351,Adams County Farmers' Market Association,Gettysburg,Pennsylvania,39.830597,-77.234147
83,1010354,Adams Farmers' & Artisans' Market,Adams,Massachusetts,42.6244919,-73.118003
84,1018278,Adams Morgan Farmer Market,"Washington, DC",District of Columbia,38.9226795,-77.04266740000001
85,1008961,Adaptations' Fresh Feast,Kealakekua,Hawaii,19.525783999999998,-155.9236509
86,1005109,Added Value Farm Stand at Governors Island,Brooklyn,New York,40.6875,-74.0231
87,1002464,Addison Farmers Market,Addison,Illinois,41.9321,-87.9934
88,1005741,Adel Farmers Market,Adel,Iowa,41.6144,-94.0175
89,1005272,Adelanto Stadium Farmers Market,Victorville,California,34.5593,-117.405
90,1012288,Adrian Farmers Market,Adrian ,Michigan,41.900169,-84.034589
91,1011214,Aenon Baptist Church Farm Stand,Rochester,New York,43.1466026,-77.63607640000001
92,1008667,Afton Village Farmers Market,Concord,North Carolina,35.414038,-80.670172
93,1019203,AG Farmers' Market,Toms River,New Jersey,39.992509000000005,-74.20747800000001
94,1007586,AGH Wellness Committee Farmer's Market,Berlin,Maryland,38.3388,-75.2113
95,1012233,Agricenter International Farmer's Market,Memphis,Tennessee,35.127452000000005,-89.801733
96,1003562,Agritopia Farm Stand,Gilbert,Arizona,33.321658,-111.726215
97,1011830,Ahwatukee Farmers Market,Phoenix,Arizona,33.331331,-111.98324199999999
98,1000212,Aiken County Farmers Market,Aiken,South Carolina,33.55688189999999,-81.7084941
99,1005258,Aina Moana  Park (People's Open Market),Honolulu,Hawaii,21.287867000000002,-157.84493
100,1008054,Airport Farmers and Flea Market,Brooksville,Florida,28.481140000000003,-82.441117
101,1007542,Akebono Farmers’ Market,Pahoa,Hawaii,19.4975,-154.951
102,1011967,Akers of Strawberries,Baker,Florida,30.7986832,-86.70128129999999
103,1001801,Akron Farmers Market,Akron,Iowa,42.8309,-96.5573
104,1005061,Akwesasne Farmers Market,Hogansburg,New York,44.9739,-74.6677
105,1004086,Alabama Gulf Coast Market,Gulf Shores,Alabama,30.250746000000003,-87.65585
106,1008612,Alachua County Farmers' Market,Gainesville,Florida,29.7106652,-82.352515
107,1006312,Alamance County Farmers Market,Burlington,North Carolina,36.0943,-79.4357
108,1009019,Alameda Farmers' Market,Alameda,California,37.774248,-122.276762
109,1004846,Alamo Farmers Market,Alamo,Nevada,37.33075,-115.1435
110,1018304,Alamo Heights Farmers Market,San Antonio ,Texas,29.493258,-98.481174
111,1011033,Alamogordo Farmers' Market in Alameda Park,Alamogordo ,New Mexico,32.9140955,-105.96099070000001
112,1004789,Alamogordo Otero County Farmers' Market,Alamogordo,New Mexico,32.92649,-105.9606
113,1004070,Alamosa Farmers Market,Alamosa,Colorado,37.468359,-105.86523600000001
114,1004425,Albany  Downtown Farmers Market,Albany,Georgia,31.57684,-84.15366
115,1002175,Albany Farmers' Market,Albany,Oregon,44.6349,-123.1061
116,1019371,Albany IN Farmers Market,Albany,Indiana,40.299191,-85.235831
117,1019389,Albemarle Farmers Market,charlottesville,Virginia,38.126178,-78.443989
118,1011108,Albert Lea Farmers Market,Albert Lea,Minnesota,43.650895,-93.368932
119,1004886,ALBERTA FARMERS MARKET,ALBERTA,Alabama,32.2319,-87.4101
120,1010559,Albion Farmer's Market,Albion,Michigan,42.243544,-84.75156899999999
121,1010407,Albuquerque Downtown Growers' Market,Albuquerque ,New Mexico,35.085972,-106.656893
122,1004761,Albuquerque Northeast Farmers' Market,Albuquerque,New Mexico,35.1506,-106.55762
123,1007016,Albuquerque VA Growers' Market,Albuquerque,New Mexico,35.0553,-106.57799999999999
124,1002222,Alcona Farmers Market,Harrisville,Michigan,44.6547,-83.2973
125,1008252,Alderson Farmers Market ,Alderson ,West Virginia,37.725953999999994,-80.64202399999999
126,1003236,Aldrich Arena Farmers Market,Maplewood,Minnesota,44.9609,-93.0877
127,1011910,Aledo Farmers Market,Aledo,Texas,32.696496,-97.602554
128,1010597,Alexander County Farmers Market,Taylorsville ,North Carolina,35.919748,-81.178122
129,1000519,Alexandria Bay Farmers Market,Alexandria Bay,New York,44.3314,-75.9157
130,1018643,Alexandria Farmers Market,Alexandria ,Louisiana,31.294132,-92.466449
131,1019113,Alexandria Farmers Market,Alexandria,Minnesota,45.890762,-95.375902
132,1011196,Alfred Farmers Market,Alfred,New York,42.253557,-77.789505
133,1007217,Algoma Farm Market,Algoma,Wisconsin,44.6077,-87.4363
134,1001300,Algonquin Farmers Market,Algonquin,Illinois,42.165,-88.29299999999999
135,1007528,Alii Garden Market Place,Kailua-Kona,Hawaii,19.6144,-155.982
136,1008835,Alisal Certified Farmers' Market,Salinas,California,36.673319,-121.634178
137,1005548,All Locally Grown Produce,Homestead,Florida,25.50788,-80.430378
138,1011735,All Natural & Certified Organic Farmer Market (HOPE FARM),Harlingen ,Texas,26.155226000000003,-97.704718
139,1010096,All Saints' Farmers Market,Memphis,Tennessee,35.090458,-89.890478
140,1000268,All-Local Farmers Market,Columbia,South Carolina,33.9847,-81.0358
141,1000168,All-Local Farmers Market 2,Columbia,South Carolina,33.9874,-81.0044
142,1001962,Allamakee Farmers Market,Waukon,Iowa,43.276278999999995,-91.475223
143,1002717,Allegan Farmers Market,Allegan,Michigan,42.529649,-85.84965799999999
144,1008262,Alleghany Farmers Market,Sparta,North Carolina,36.503003,-81.12259300000001
145,1019831,Allen County Farmers' Market,IOLA,Kansas,37.927427,-95.400669
146,1019832,Allen County Farmers' Market,Iola,Kansas,37.927427,-95.400669
147,1011777,Allen Farmers Market,Lansing,Michigan,42.73023870000001,-84.5263803
148,1007413,Allendale County Farmers Market,Allendale,South Carolina,33.0044,-81.3191
149,1007716,Allentown Farigrounds Farmers Market,Allentown,Pennsylvania,40.6008,-75.4942
150,1007083,Allentown Turnpike Plaza Farmers Market,Allentown,Pennsylvania,40.6218,-79.7254
151,1002964,Alliance Farmers Market,Alliance,Nebraska,42.0971,-102.87100000000001
152,1005675,Alliance Farmers' Market,Alliance,Ohio,40.9216,-81.1024
153,1006739,Alliance for the Arts GreenMarket,Ft. Myers,Florida,26.595209999999998,-81.89128000000001
154,1002683,Allston Farmers' Market,Allston,Massachusetts,42.3629,-71.1299
155,1005134,Allston Village Farmers Market,Boston,Massachusetts,42.353384000000005,-71.13784179999999
156,1006816,Alma Farmers Market,Alma,Nebraska,40.1008,-99.3625
157,1002250,Alma Farmers' Market,Alma,Michigan,43.380269899999995,-84.656984
158,1007836,Almont Farmers' Market,Almont,Michigan,42.9216,-83.0475
159,1012389,Aloha Community Farmers' Market,Aloha,Oregon,45.480164,-122.858722
160,1010476,Alpena Farmers' Market,Alpena ,Michigan,45.061878,-83.430998
161,1005447,Alpha Nursery Farmers' Market,Cascade,Idaho,44.4251,-115.99799999999999
162,1009792,Alsip Farmers Market,Alsip,Illinois,41.664913,-87.727804
163,1009998,Altadena Farmers' Market,Altadena,California,34.200378799999996,-118.1581301
164,1004383,Altamont Farmer's Market,Altamont,New York,42.7013,-74.0325
165,1000357,Altavista Farmers Market,Altavista,Virginia,37.1185,-79.2838
166,1006749,Alton Farmers' and Artisans' Market,Alton,Illinois,38.8887926,-90.1780932
167,1004154,Altoona Farmers Market,Altoona,Pennsylvania,40.6787,-78.2462
168,1001100,Altus Farmers Market,Altus,Oklahoma,34.6491,-99.3336
169,1011421,Alum Rock Village Farmers' Market,San Jose,California,37.36777,-121.83328799999998
170,1001733,Alva Farmers Market,Alva,Oklahoma,36.8083,-98.6602
171,1005644,Amador Farmers' Market-- Jackson,Jackson,California,38.348802299999996,-120.7741018
172,1005645,Amador Farmers' Market-- Pine Grove,Pine Grove,California,38.348802299999996,-120.7741018
173,1005646,Amador Farmers' Market-- Sutter Creek,Sutter Creek,California,38.348802299999996,-120.7741018
174,1001826,Ambridge Farmers Market,Ambridge,Pennsylvania,40.5819,-80.225
175,1008321,Amelia Barter Town Farmers Market,Amelia Court House ,Virginia,37.3426037,-77.9805478
176,1008399,Amelia Farmers Market,Amelia Island,Florida,30.579786,-81.454531
177,1006373,Amenia Farmers Market,,New York,41.8513,-73.5549
178,1001367,American National Bank Downtown Farmers Market Festival,Grand Junction,Colorado,39.0682,-108.564
179,1005946,Amerisafe Downtown Pavilion & Farmers Market,DeRidder,Louisiana,30.8469,-93.2862
180,1005188,Amery Farmers Market,Amery,Wisconsin,45.3072,-92.3624
181,1011171,Ames Main Street Farmers' Market,"Ames, IA",Iowa,42.025222,-93.61494300000001
182,1000284,Amherst Farmers' Market,Amherst Center,Massachusetts,42.374858,-72.51942199999999
183,1006748,Amherst Wednesday Market at Kendrick Park,Amherst,Massachusetts,42.379974,-72.519778
184,1009833,Amherst Winter Farmers' Market,Amherst,Massachusetts,42.384865999999995,-72.511105
185,1003563,Amicalola Regional Farmers Market,Dawsonville,Georgia,34.437795,-84.09904300000001
186,1018789,Amicalola Regional Farmers Market,Dawsonville,Georgia,34.357704999999996,-84.03157
187,1001135,Amma Farmers Market,Amma,West Virginia,38.583304999999996,-81.255883
188,1019438,Amqui Station Farmers Market,Madison,Tennessee,36.257791999999995,-86.71749100000001
189,1016853,Amsterdam Saturday Farmers/Crafters Market,Amsterdam ,New York,42.939627,-74.1849
190,1012157,Anaconda Community Market,Anaconda,Montana,46.12798,-112.954123
191,1005944,Anacortes Farmers Market,Anacortes,Washington,48.516974,-122.609181
192,1001105,Anamoose Market in the Park,Anamoose,North Dakota,47.880722,-100.24061
193,1003055,Anamosa Farmers Market,Anamosa,Iowa,42.1083,-91.2795
194,1007258,Anchorage Farmers Market,Anchorage,Alaska,61.208059,-149.880724
195,1002640,Anchorage Market & Festival,Anchorage,Alaska,61.2195,-149.891
196,1018744,Anderson City Market,Anderson,Indiana,40.111063,-85.669117
197,1008727,Anderson County Farmers Market ,Lawrenceburg ,Kentucky,38.074839000000004,-84.91805699999999
198,1019647,Anderson County Farmers Market,Anderson,South Carolina,34.506898,-82.652197
199,1000971,Anderson Farm Market,Xenia,Ohio,39.7668,-83.8824
200,1004991,Anderson Farmers' Market,Cincinnati,Ohio,39.078533,-84.350563
201,1002089,Anderson Happy Valley Farmers Market,Anderson,California,40.4487,-122.40799999999999
202,1003516,Andersonville Farmers Market,Chicago,Illinois,41.978,-87.6687
203,1007647,Andover Farmers Market,Andover,Minnesota,45.2192618,-93.3573105
204,1019735,Andover Farmers Market,Andover,Massachusetts,42.653634999999994,-71.14275699999999
205,1000287,Andrews Farmers Market,Andrews,North Carolina,35.2027,-83.8232
206,1006378,Angelica Farmers' Market,Angelica,New York,42.306061,-78.015956
207,1010280,Angelina County Farmers Market,Lufkin ,Texas,31.321061,-94.697749
208,1006268,Angels Camp Farmers Market-Fresh Fridays,Angels Camp,California,38.072158,-120.5427
209,1010223,Ann Arbor Farmers Market,Ann Arbor,Michigan,42.283836,-83.74665300000001
210,1010380,Anna House Farm Stand,Elmont ,New York,40.708292,-73.716466
211,1001782,Anna/Union County Farmers Market,Anna,Illinois,37.4604,-89.2093
212,1019484,Annandale Farmers Market ,Annandale ,Virginia,38.832801,-77.196229
213,1019096,Annandale Farmers Market - ACT,Annandale ,Minnesota,45.2636097,-94.12383220000001
214,1001142,Anne Arundel County Farmers' Market  (Riva),Annapolis,Maryland,38.9763,-76.5556
215,1004881,Anne Heyliger Vegetable Market,Saint Croix,Virgin Islands,17.7099,-64.8799
216,1001465,Anoka County Growers Association/ Anoka Market,Anoka,Minnesota,45.197726,-93.384261
217,1007646,Anoka County Growers/ St. Timothy Church Blaine,Blaine,Minnesota,45.13304,-93.2525239
218,1007636,Anoka County Growers/Immaculate Conception Church,Columbia Heights,Minnesota,45.0489,-93.2459
219,1000306,Anselma Farmers' and Artisans' Market,Chester Springs,Pennsylvania,40.079648,-75.641899
220,1000405,Anson County Farmers Market,Wadesboro,North Carolina,34.940829,-80.05256700000001
221,1011248,Antelope Valley Winery Farmer's Market ,Lancaster,California,34.6470421,-118.1662288
222,1012651,Anthem Farmers Market,Anthem ,Arizona,33.862997,-112.13631299999999
223,1000434,Anthony Farmers Market,Anthony,Kansas,37.1521,-98.038
224,1018934,"Antigo Farmers Market, Inc.",Antigo,Wisconsin,45.137757,-89.149389
225,1019350,Antioch's Farmers Market,Antioch,Illinois,42.478128000000005,-88.09456999999999
226,1011109,Apex Farmers Market,Apex ,North Carolina,35.7320152,-78.849899
227,1011158,"Appalachian (Newport) Farmers Market, Cocke County TN",Newport,Tennessee,35.96175,-83.194852
228,1005207,Appalachian Farmers' Market,Gray,Tennessee,36.4183,-82.4819
229,1000683,Apple Country Farmers Market,Lubbock,Texas,33.57785,-101.8364
230,1000685,Apple Country Farmers Market,Idalou,Texas,33.666336,-101.611862
231,1006889,Apple Valley Farmers' Market,Apple Valley,Minnesota,44.7309,-93.2072
232,1018356,Appleton Area Farmers Market,Appleton,Minnesota,45.203340000000004,-96.02079599999999
233,1000431,Appleton Downtown Farm Market,Appleton,Wisconsin,44.26201,-88.40703
234,1009687,Aptos Farmers Market at Cabrillo College,Aptos,California,36.9872756,-121.92703940000001
235,1019780,Aquidneck Growers Market - Monday,Newport ,Rhode Island,41.508657,-71.308524
236,1019778,Aquidneck Growers Market - Wednesday,Newport,Rhode Island,41.483666,-71.305756
237,1001738,Aquidneck Growers' Markets,Middletown,Rhode Island,41.529191,-71.271936
238,1019813,Aquidneck Growers' Markets,Portsmouth,Rhode Island,41.546506,-71.26137800000001
239,1008482,Arbuckle Certified Farmers Market,Arbuckle ,California,38.953013,-122.06608200000001
240,1001764,Arcade Farmers' Market,Arcade,New York,42.533776399999994,-78.4308288
241,1000558,Arcadia Valley Farmers' Market,Ironton,Missouri,37.5945109,-90.6278618
242,1012474,Arcadia's Mobile Market -- Barry Farm Recreation Center,Washington,District of Columbia,38.860661,-76.996697
243,1012410,Arcadia's Mobile Market -- Children's National Medical Center WIC Clinic,Washington ,District of Columbia,38.9271809,-77.0146728
244,1012375,Arcadia's Mobile Market -- Community of Hope - Conway Health and Resource Center,Washington ,District of Columbia,38.8312359,-77.00939129999999
245,1012453,Arcadia's Mobile Market -- Community of Hope Family Health & Birth Center,Washington,District of Columbia,38.9008251,-76.9781261
246,1012422,Arcadia's Mobile Market -- Congress Heights Senior Wellness Center,Washington,District of Columbia,38.8400841,-77.00443609999999
247,1012455,Arcadia's Mobile Market -- Deanwood Recreation Center,Washington,District of Columbia,38.9082997,-76.9324515
248,1012477,Arcadia's Mobile Market -- Edgewood Commons,Washington ,District of Columbia,38.9237975,-76.9971713
249,1012413,Arcadia's Mobile Market -- Hendley Elementary ,Washington,District of Columbia,38.8286428,-76.9991386
250,1012419,Arcadia's Mobile Market -- Ledroit Park,Washington,District of Columbia,38.9175043,-77.01595909999999
251,1012454,Arcadia's Mobile Market -- Parkside Unity Healthcare/Circle 7 Express,Washington,District of Columbia,38.900758200000006,-76.9468929
252,1012374,Arcadia's Mobile Market -- The Overlook at Oxon Run,Washington ,District of Columbia,38.8358959,-76.9940286
253,1012427,Arcadia's Mobile Market -- United Medical Center,Washington,District of Columbia,38.8359393,-76.9849936
254,1012377,Arcadia's Mobile Market -- Wah Luck House Chinatown,Washington,District of Columbia,38.9002248,-77.02019109999999
255,1002085,Arcata Plaza Farmers' Market,Arcata,California,40.868396999999995,-124.086882
256,1018326,Archwood Green Barns Farmers' Market,The Plains,Virginia,38.8518451,-77.7871186
257,1007662,Area Farmers Market,Corpus Christi,Texas,27.7763,-97.4258
258,1002798,Arenac Conservation District Farmers Market,Standish,Michigan,43.983428,-83.96129599999999
259,1019187,Argus Farm Stop - Packard,"Ann Arbor, Michigan, United States",Michigan,42.2532638,-83.83867099999999
260,1002314,Ark City Farm & Art Market,Arkansas City,Kansas,37.0609,-97.0386
261,1005928,Arkansas County/North Farmers Market,Stuttgart,Arkansas,34.4851,-91.5488
262,1005927,Arkansas County/South Farmers Market,DeWitt,Arkansas,34.2823,-91.3401
263,1002621,Arkansas Home Grown Market I,Little Rock,Arkansas,34.7568,-92.3709
264,1002622,Arkansas Home Grown Market II,Little Rock,Arkansas,34.7955,-92.2329
265,1002620,Arkansas Home Grown Market III,Little Rock,Arkansas,34.7404,-92.3452
266,1001018,Arkansas Local Food Network Online Farmers Market,Little Rock,Arkansas,34.743076,-92.269599
267,1017963,Arlington Farm and Art Market,Arlington ,Kansas,37.896668,-98.178852
268,1008236,Arlington Farmers Market,Poughkeepsie,New York,41.691447,-73.901164
269,1009968,Arlington Farmers Market,"Arlington, Ma. ",Massachusetts,42.427739,-71.164738
270,1018253,Arlington Farmers Market,Arlington,Virginia,38.889590000000005,-77.084592
271,1018561,Arlington Farmers Market,Arlington,Washington,48.192878,-122.126899
272,1003571,Arlington Heights Farmers Market,Arlington,Illinois,42.086000000000006,-87.9808
273,1010945,Arlington Mill Farmers Market,Arlington ,Virginia,38.8562594,-77.1121896
274,1011958,Arlington Park Farmers Market,Jersey City,New Jersey,40.714273999999996,-74.070764
275,1019662,Arlington Village Farmers Market,Arlington,Vermont,43.072884,-73.146078
276,1011122,Armijo Village Growers' Market,Albuquerque,New Mexico,35.0526489,-106.67762590000001
277,1019466,Armory Farmers Market,Providence ,Rhode Island,41.814735,-71.432244
278,1019222,Arnold Farmers Market,Arnold,Missouri,38.453275,-90.353093
279,1000294,Arnold-Mountain Growers Farmers Market,Murphys,California,38.239000000000004,-120.36200000000001
280,1001892,Arroyo Grande Oak Park Plaza Farmers Market,Arroyo Grande,California,35.1271,-120.552
281,1001893,Arroyo Grande Spencers CFM,Arroyo Grande,California,35.1221,-120.60600000000001
282,1006270,Arthur Produce Auction,Arthur,Illinois,39.7033,-88.4518
283,1019495,Artisan Alley Farmers and Makers Market,DeLand,Florida,29.027562,-81.30434100000001
284,1008855,Artisan and Agriculture Market,Bruce Township,Michigan,42.830852,-83.020813
285,1010575,Artisan Exchange West Chester,West Chester,Pennsylvania,39.948293,-75.587797
286,1008534,Artisan Foodworks Thursday Evening Market,Columbus ,Indiana,39.292351000000004,-85.95311099999999
287,1007842,Artisan Gift and Farmers Market,TUCSON,Arizona,32.2579,-110.79899999999999
288,1005081,Arvada Farmers Market,Arvada,Colorado,39.800138000000004,-105.081455
289,1009285,Arvada Five Parks Farmers Market,Arvada,Colorado,39.8488,-105.155
290,1009272,Asbury Fresh,Asbury Park,New Jersey,40.2164,-74.0094
291,1004350,Asbury Park Carousel Farmers' Market,Asbury Park,New Jersey,40.219339,-74.00077879999999
292,1000397,Ashboro Downtown Farmers Market,Asheboro,North Carolina,35.7049,-79.8175
293,1002490,Ashburn (Chicago) Farmers Market,Chicago,Illinois,41.8851,-87.626
294,1016829,Ashburnham Farmers' Market,Ashburnham,Massachusetts,42.608270000000005,-71.94085600000001
295,1007600,Ashby Farmers Market,Ashby,Massachusetts,42.6778,-71.8208
296,1003575,Ashdown Farmers Market,Ashdown,Arkansas,33.6747,-94.131
297,1003219,Ashe County Farmers Market,West Jefferson,North Carolina,36.402494,-81.493514
298,1008904,Asheville City Market,Asheville ,North Carolina,35.593481,-82.548852
299,1008905,Asheville City Market - South,Asheville,North Carolina,35.486275,-82.55464599999999
300,1000887,Ashfield Farmers Market,Ashfield,Massachusetts,42.525744,-72.790325
301,1007501,ASHFORD FARMERS’ MARKET,Ashford,Connecticut,41.8663,-72.1646
302,1005158,Ashland Area Farmers Market,Ashland,Wisconsin,46.5882,-90.8907
303,1008897,Ashland Farmers Market,Ashland,Virginia,37.758739,-77.483393
304,1009810,Ashland Farmers Market,Ashland,Massachusetts,42.260027,-71.461538
305,1000465,Ashland United Methodist Church Farmers Market,Columbia,South Carolina,34.0412,-81.1279
306,1003642,Ashley County Farmers Market,Crossett,Arkansas,33.1353,-91.9664
307,1006964,Ashley Farmers Market,Ashley,North Dakota,46.0344,-99.3684
308,1000836,Ashley Valley Farmers' Market (Vernal),Vernal,Utah,40.45574722222221,-109.524091666667
309,1018712,Ashmont Farmers Market,Dorchester,Massachusetts,42.285469,-71.06416999999999
310,1004530,Ashotn Farmers Market,Ashton,Idaho,44.0714,-111.446
311,1009244,Ashtabula Farmers Market,Ashtabula,Ohio,41.8995,-80.7998
312,1004692,Aspen Grove Farmers' Market,Littleton,Colorado,39.585505,-105.02521899999999
313,1005837,Aspen Saturday Market,Aspen,Colorado,39.1894,-106.81700000000001
314,1000086,Astoria Greenmarket,Queens,New York,40.767672,-73.932452
315,1003661,Astoria Sunday Market,Astoria,Oregon,46.185509,-123.83029509999999
316,1001245,ASU Regional Farmers Market,Jonesboro,Arkansas,35.840771000000004,-90.667327
317,1009516,ATACs Capitan Farmers Market,Capitan,New Mexico,33.5455,-105.573
318,1009447,Atascadero  Farmers Market,Atascadero,California,35.4858,-120.664
319,1003911,Atascadero Farmers Market,Paso Robles,California,35.4882,-120.667
320,1001294,Atascadero Main Street CFM,Atascadero,California,35.4901,-120.669
321,1002984,Atchison Farmers Market,Atchison,Kansas,39.560736999999996,-95.119878
322,1003223,Athens Farmers Market,Athens,Illinois,39.9602,-89.723
323,1005086,Athens Farmers Market,Athens,Ohio,39.335916299999994,-82.0584387
324,1018305,Athens Farmers Market,Athens,Michigan,42.091051,-85.235417
325,1010034,Athens Farmers Market at Market Park,Athens,Tennessee,35.441046,-84.591849
326,1008974,Athens Farmers Market Downtown,Athens,Georgia,33.959569,-83.37605500000001
327,1018033,"Athens Farmers Market, L.L.C.",Athens,Georgia,33.959088,-83.380247
328,1018032,"Athens Farmers Market, LLC",Athens,Georgia,33.9644564,-83.4121317
329,1000297,Athens Locally Grown,Athens,Georgia,33.956317999999996,-83.383849
330,1011861,Athens Saturday Market,Athens,Alabama,34.8013039,-86.9735003
331,1002987,Atherton Market,Charlotte,North Carolina,35.20844,-80.86126999999999
332,1000750,Athol Farmers Market,Athol,Massachusetts,42.5892837,-72.21583670000001
333,1006095,Atlanta State Farmers Market,Forest Park,Georgia,33.6168,-84.4009
334,1000708,Atlantic City Farmers' Market,Atlantic City,New Jersey,39.363,-74.4256
335,1000464,Atlantic Farmers Market,Atlantic,Iowa,41.4043,-94.9965
336,1006303,Atlantic Highlands Chamber of Commerce Farmers' Market,Atlantic Highlands,New Jersey,40.412777,-74.038861
337,1001503,Attala County Farmers Market,Kosciusko,Mississippi,33.066107,-89.579812
338,1002860,Attalla City Farmers Market,Attalla,Alabama,34.021763899999996,-86.08858520000001
339,1018330,"Attleboro Farmers Market, inc",Attleboro ,Massachusetts,41.937562,-71.299235
340,1010003,Atwater Village Farmers' Market,Los Angeles ,California,34.118435,-118.25983000000001
341,1000655,Auburn Dewitt Center Farmers Market,Auburn,California,38.9218,-121.098
342,1006311,Auburn Farmer's Market,Auburn,Georgia,34.0137,-83.82799999999999
343,1002377,Auburn Farmers Co-op Market Inc.,Auburn,New York,42.933811999999996,-76.57016899999999
344,1001349,Auburn Farmers Market,Auburn,Indiana,41.3606,-85.0514
345,1003772,Auburn Farmers Market,Auburn,Kansas,38.909597,-95.81573399999999
346,1006712,Auburn Farmers Market,Auburn,Massachusetts,42.2047,-71.8358
347,1019789,Auburn Farmers Market,Auburn,Washington,47.298266999999996,-122.21845900000001
348,1018270,Auburn Farmers' market,Auburn ,Maine,44.087793,-70.224564
349,1006410,Auburn Hills Farmers Market,Auburn Hills,Michigan,42.6337033,-83.220416
350,1001569,Auburn Marketplace Farmers Market,Auburn,California,38.9007,-121.068
351,1000736,Auburn Old Town Farmers Market,Auburn,California,38.8961,-121.07600000000001
352,1003923,Audubon Farmers Market,Minneapolis,Minnesota,45.016819,-93.23712900000001
353,1005375,Audubon Farmers Market,Audubon,Iowa,41.7386,-94.9375
354,1008999,Audubon Park Community Market,Orlando,Florida,28.568415,-81.346417
355,1003866,Augsburg Farmers Market,Minneapolis,Minnesota,44.9665,-93.2407
356,1004300,Augusta Farmers' Market at Mill Park,Augusta,Maine,44.321616999999996,-69.772623
357,1000870,Augusta State Farmer's Market,AUGUSTA,Georgia,33.462514,-81.9641247
358,1000559,Aurora Local Farmer's Market - Summer Market,Aurora,Missouri,36.948908,-93.72018670000001
359,1005604,Aurora Local Farmers' Market,Aurora,Missouri,36.94886939999999,-93.7201122
360,1010694,Aurora Local Farmers' Market - Winter Market,Aurora ,Missouri,36.970302000000004,-93.717404
361,1011929,Aurora's Farmers Market Downtown,Aurora ,Illinois,41.762039,-88.308684
362,1011927,Aurora's Farmers Market East,Aurora ,Illinois,41.744077000000004,-88.247947
363,1011928,Aurora's Farmers Market West,Aurora ,Illinois,41.764832,-88.362122
364,1001695,Ausable Valley Farmers Market,Ausable Forks,New York,44.4427,-73.6676
365,1002491,Austin (Chicago) Farmers Market,Chicago,Illinois,41.8851,-87.626
366,1012430,Austin Farmers' Market,Austin,Minnesota,43.66672,-92.969561
367,1011490,Austintown Farmers Market,Austintown,Ohio,41.070510999999996,-80.77409399999999
368,1011826,Authentically Ajo Farmers Market,Ajo ,Arizona,32.3726313,-112.86228840000001
369,1005376,Ava Farmers Market,Ava,Illinois,37.8883,-89.4946
370,1010695,Ava Growers' Market,Ava ,Missouri,36.951999,-92.66044570000001
371,1003539,Aventura  mall market,adventura,Florida,25.87024,-80.17362
372,1007033,Avery County Farmers Market,Newland,North Carolina,36.0822,-81.9219
373,1019396,Avon Farmers Market,Avon,Indiana,39.765279,-86.38263
374,1011092,Avon Lake Farmers Market,Avon Lake,Ohio,41.509613,-82.020624
375,1019126,Avon Library Farmers Market,AVON,Connecticut,41.78971,-72.860448
376,1000898,Avon Market Days,Avon,New York,42.910709000000004,-77.733822
377,1000502,Awendaw Farmers and Fresh Seafood Market,Awendaw,South Carolina,32.9901,-79.64399999999999
378,1003520,AYA Community Markets,Washington,District of Columbia,38.8792834,-77.0175504
379,1007435,Ayer Farmers Market,Ayer,Massachusetts,42.56,-71.5894
380,1006907,Azalea Street Marketplace,Rosepine,Louisiana,30.854,-93.2905
381,1004803,Aztec Farmers' Market,Aztec,New Mexico,36.827899,-107.98909599999999
382,1010696,B2B (Back to Basics) Farmers' Maket - Pineville,Pineville ,Missouri,36.593521,-94.383498
383,1005235,B2B (Back to Basics) Farmers' Market,Anderson,Missouri,36.6396152,-94.4265963
384,1010697,B2B Farmers' Market- Thursdays,Anderson ,Missouri,36.67013,-94.44080799999999
385,1002624,Back Mountain Farmers Market,Dallas,Pennsylvania,41.3327,-75.96300000000001
386,1000029,Bagley Area Farmrs Market,Bagley,Minnesota,47.5218,-95.397
387,1005228,Bagnell Dam Farmers' Market,Lake Ozark,Missouri,38.1973,-92.6417
388,1019044,Bainbridge Farm Market,bainbridge,Indiana,39.762232899999994,-86.817696
389,1010608,Bainbridge Farmers Market,Bainbridge,Georgia,30.9073968,-84.5755207
390,1004633,Bainbridge Island Farmers' Market,Bainbridge Island,Washington,47.626022999999996,-122.519178
391,1003411,Baker City Farmers Market,Baker City,Oregon,44.782835999999996,-117.82303600000002
392,1000540,Bakersfield Health Dept CFM,Bakersfield,California,35.383,-118.96799999999999
393,1003134,Bakersfield Mt. Vernon Farmers Market,Lindsay,California,36.203,-119.088
394,1001448,Bakersfield Wall St. Alley Farmers Market,Bakerfield,California,35.3867,-119.023
395,1001017,Bakersville Farmers Market,Bakersviile,North Carolina,36.0159,-82.1572
396,1007121,BALD EAGLE VALLEY METHODIST CHURCH,Runville,Pennsylvania,40.963,-77.839
397,1004882,Baldwin City Farmers' Market,Baldwin City,Kansas,38.774763,-95.188036
398,1009475,Baldwin Farmers Market,"Baldwin, Nassau County",New York,40.6424,-73.6128
399,1009163,Baldwin Lake Vegetable Market,Big Bear City,California,34.2891,-116.811
400,1003720,Baldwin Park Farmers Market,Baldwin Park,California,34.0856,-117.965
401,1019076,Baldwin's Main St. Farmers Market,Baldwin,Wisconsin,44.966999,-92.370763
402,1008721,Ballard County Farmers' Market,La Center ,Kentucky,37.071983,-88.966491
403,1011333,Ballard Farmers Market,Seattle,Washington,47.667590999999994,-122.384667
404,1006740,Ballston Farmers Market,Arlington,Virginia,38.8826,-77.1165
405,1003662,Ballston Spa Farmers Market,Ballston Spa,New York,43.002364,-73.84984
406,1003814,Balsam Lake Farmers Market,Balsam Lake,Wisconsin,45.4511,-92.4571
407,1006519,Baltimore County Farmers' Market,Lutherville=Timonium,Maryland,39.4398,-76.6264
408,1000790,Baltimore Farmers' Market,Baltimore,Maryland,39.29290039999999,-76.621478
409,1001027,Bancroft Street Farmers Market,Omaha,Nebraska,41.2339,-95.93
410,1010688,Bandera Farmers Market,Bandera,Texas,29.727714000000002,-99.074251
411,1008053,Bangor Farmers Market,Bangor,Michigan,42.3123539,-86.1090777
412,1012081,Bangor Farmers' Market,Bangor,Maine,44.8039587,-68.771649
413,1012134,banning market night,banning,California,33.924896999999994,-116.889524
414,1010152,Bar Harbor Eden Farmers' Market,Bar Harbor,Maine,44.383067,-68.20338100000001
415,1002881,Barberville Family Farm Swap & Market,Barberville,Florida,29.182617999999998,-81.425782
416,1004549,Barbour County Community Garden Market,Philippi,West Virginia,39.151808,-80.036253
417,1001612,Barbour County Farmers Market,Eufaula,Alabama,31.8929,-85.1431
418,1008918,Barclays Center,Brooklyn,New York,40.677963,-73.951143
419,1007268,Bardstown Farmers Market,Bardstown,Kentucky,37.810078999999995,-85.465096
420,1008466,Barham Cattle Company & Family Farm,Kearney,Missouri,39.325678,-94.37225
421,1003082,Barker Farmers Market,Barker,New York,43.3301158,-78.55480229999999
422,1018168,Barker's Island Farmers Market,Superior ,Wisconsin,46.722303100000005,-92.068366
423,1001604,Barnegat Farmers Market,Barnegat,New Jersey,39.7536,-74.2225
424,1003211,Barnesville Farmers Market,Barnesville,Ohio,39.9881,-81.1739
425,1000353,Barnesville/Lamar County Farmers Market,Barnesville,Georgia,33.0515,-84.1573
426,1002354,Barre Farmer's Market,Barre,Massachusetts,42.421809,-72.105138
427,1018517,Barre Farmers Market,Barre,Vermont,44.1970059,-72.4975505
428,1003976,Barren County Regional Farmers' Market,Glasgow,Kentucky,36.99604,-85.91528000000001
429,1002269,Barrington Farmers Market,Barrington,Illinois,42.1524,-88.1348
430,1007010,Barrington Farmers Market,Barrington,New Hampshire,43.2228,-71.0469
431,1003550,Barry University Green Market,Miami Beach,Florida,25.8785,-80.1967
432,1012205,Barryville Farmers' Market,Barryville,New York,41.477835999999996,-74.913476
433,1002936,Barstow Market Festival Farmers Market,Barstow,California,34.8988,-117.023
434,1006001,Bartel Pritchard Square Greenmarket,Brooklyn,New York,40.6611,-73.979316
435,1002564,Bartlesville Farmers Market,Bartlesville,Oklahoma,36.7465,-95.9768
436,1006441,Bartlett Farmers Market,Bartlett,Illinois,41.9899,-88.1846
437,1008194,Bartlett Station Farmers Market,Bartlett,Tennessee,35.197448,-89.872424
438,1009308,Barton Creek Farmers Market,Austin,Texas,30.3222,-97.7557
439,1009402,Barton Creek Farmers Market (Highland Mall),Austin,Texas,30.3244,-97.7157
440,1003335,Basalt Sunday Market,Basalt,Colorado,39.3688,-107.036
441,1010197,Basin Farmers Market,Basin,Wyoming,44.379957399999995,-108.0389895
442,1009522,Bass Lake Center Farmers Market,Maple Grove ,Minnesota,45.0658,-93.445
443,1004987,Bass River Farmers Market,South Yarmouth,Massachusetts,41.6658325195313,-70.18536376953129
444,1000436,Bastrop 1832 Farmers Market,Bastrop,Texas,30.110719,-97.312067
445,1005439,Batavia Farmers Market,Batavia,Illinois,41.849249,-88.31044399999999
446,1006462,Bath County Farmers Market,Hot Springs,Virginia,38.001164,-79.833811
447,1001325,Bath County Farmers' Market,Owingsville,Kentucky,38.138877,-83.720326
448,1007420,Bath Farmers Market,Bath,Michigan,42.816181,-84.449093
449,1002294,Bath Saturday Farmers Market,Steuben,New York,42.9467,-75.5123
450,1007305,Bath Winter and Summer Market,Bath,Maine,43.9141,-69.8318
451,1010533,Batten's Farmers Market & Davie Agritourism Center,Davie,Florida,26.056493300000003,-80.2331816
452,1019712,Battle Creek Farmers Market,Battle Creek,Michigan,42.31994,-85.18510699999999
453,1003806,Battlefield Farmers Market,Rock Spring,Georgia,34.848803000000004,-85.248013
454,1004026,Baxter Farmers Market,Baxte,Iowa,41.8251,-93.1496
455,1019617,Bay Area Farmers Market ,Friendswood,Texas,29.549075,-95.151154
456,1000919,Bay County Farmers Market,Bay City,Michigan,43.5895,-83.8881
457,1003239,Bay County Farmers Market,Panama City,Florida,30.1748,-85.6338
458,1000057,Bay Ridge Greenmarket,New York,New York,40.61695,-74.03210200000001
459,1005817,Bayberry Plaza Farmers Market,Liverpool,New York,43.1389,-76.2254
460,1016880,Bayfield Downtown Farmers Market,Bayfield,Colorado,37.225578999999996,-107.602898
461,1003728,Bayfield Lion's Club Farmers Market,Bayfield,Wisconsin,46.4337,-91.0592
462,1007808,Bayou Teche Market,St. Martinville,Louisiana,30.1241,-91.8267
463,1004003,Bayport Farmers Market,Bayport,Minnesota,45.019,-92.7794
464,1010298,Bayside Farmers Market,St. Ignace,Michigan,45.867004,-84.720967
465,1012004,Bayside Harvest Market,Crisfield ,Maryland,37.979131,-75.861666
466,1008861,Bayview Farmers Market,Langley ,Washington,48.006879,-122.461312
467,1007020,Bayville Farmers Market,New York,New York,40.9053,-73.5492
468,1009448,Baywood Los Osos Farmers Market,Baywood,California,35.3282,-120.84100000000001
469,1003912,Baywood/Los Osos Certified Farmers Market,Baywood ,California,35.328154,-120.840899
470,1009473,Be Local Winter Farmer's Market,Fort Collins,Colorado,40.5878,-105.07799999999999
471,1012753,Beach Baptist Farmers Market,Fort Myers Beach ,Florida,26.442505999999998,-81.930516
472,1001852,Beaches Green Market,Neptune Beach,Florida,30.314978000000004,-81.397288
473,1006359,Beacon Farmers Market (Summer),Beacon,New York,41.504816,-73.985119
474,1018391,Bean Blossom Farmers' Market,Morgantown,Indiana,39.266784,-86.25009200000001
475,1009334,Bear Creek Farmers Market,Belmont,Mississippi,34.5108,-88.2108
476,1018602,Beatrice Farmers' Market,Beatrice,Nebraska,40.265715,-96.74383
477,1018735,Beaumont Farmers' Market,"Beaumont, ",Texas,30.067677000000003,-94.167186
478,1001275,"Beaumont Hospital Royal Oak, Farmers Market",Royal Oak,Michigan,42.514952,-83.19211899999999
479,1001827,Beaver County Fruit Company I,Beaver,Pennsylvania,40.7199,-80.3239
480,1011675,Beaver Dam Farmer's Market,"Beaver Dam, Kentucky",Kentucky,37.400207,-86.870931
481,1001828,Beaver Falls Farmers Market,Beaver Falls,Pennsylvania,40.7596,-80.3207
482,1018759,Beaverdale Farmers Market,Des Moines ,Iowa,41.620058,-93.6731823
483,1001403,Beaverton Farmers Market,Beaverton,Oregon,45.484265,-122.805002
484,1008103,Beaverton Farmers Market - Wednesday,Beaverton ,Oregon,45.484265,-122.805002
485,1011291,Bedford Farmer's Market,Temperance ,Michigan,41.765307,-83.596275
486,1011041,Bedford Farmers Market,Bedford,Indiana,38.861548,-86.483982
487,1018709,Bedford Farmers Market,Bedford,New Hampshire,42.950361,-71.482505
488,1018388,Bedford Hills Winter Farmers' Market,Bedford Hills,New York,41.237316,-73.699936
489,1019400,Bedminster Farmers Market,Bedminster,New Jersey,40.662856,-74.646889
490,1009202,Bedner's Farm Fresh Market,Boynton Beach  ,Florida,26.4917,-80.2051
491,1005936,Bee Hive Farmers' Market,Poplar Bluff,Missouri,36.7588,-90.3849
492,1018658,Beechmont Open Air Market,Louisville,Kentucky,38.1841037,-85.7676285
493,1010368,BeeHaven Farm Roadside Market,Harrisburg,Nebraska,41.442823,-103.65178900000001
494,1006161,"Beets, Beats, and Eats Farmers Market",Ortonville,Michigan,42.852734000000005,-83.443812
495,1005696,"Beginning May 11, 2011",Camp Point,Illinois,40.0406,-91.0753
496,1010607,Bel Air Farmers' Market,Bel Air,Maryland,39.535284000000004,-76.351011
497,1012635,Belchertown Farmers Market,Belchertown,Massachusetts,42.277868,-72.40138
498,1011913,Belding Beatnik Bazaar,Belding,Michigan,43.096859,-85.228826
499,1004782,Belen Farmers' Market,Belen,New Mexico,34.66278,-106.7752
500,1009384,Belfair Farmers Market,Belfair,Washington,47.4515,-122.82700000000001
501,1008797,Belfast Farmers' Market,Belfast,Maine,44.4292136,-69.0139675
502,1004852,Belgrade Lions Farmers Market,Belgrade,Montana,45.7732,-111.185
503,1007195,Belington Farmers Market,Belington,West Virginia,39.0251,-79.9357
504,1007653,Bell County Farmers Market Association I,Belton,Texas,31.0559,-97.4619
505,1007182,Bell County Farmers Market Association II,Temple,Texas,31.0945,-97.34200000000001
506,1004824,Bella Vista CFM,Bella Vista,California,40.6378,-122.235
507,1003347,Bella Vista Farmers Market,Bella Vista,Arkansas,36.4714,-94.241
508,1011051,Bellaire Farmers Market,Bellaire,Michigan,44.974831,-85.205265
509,1012629,Belle Plaine Farmers Market,Belle Plaine ,Iowa,41.896304799999996,-92.2749472
510,1001076,Belleair's Market on the Mall,Belleair,Florida,27.9351,-82.8035
511,1010227,Bellefonte DE Farmers Market,Bellefonte ,Delaware,39.766661,-75.499515
512,1007114,Bellefonte FM,Bellefonte,Pennsylvania,40.9122,-77.778
513,1011902,Belleville Farmer's Market,Belleville ,Kansas,39.823532,-97.63102099999999
514,1001082,Belleville Farmers Market,Belleville,Michigan,42.2083,-83.4907
515,1001176,Belleville Farmers' Market & Livestock,Belleville,Pennsylvania,40.6046,-77.7229
516,1008875,Belleville Old Town Market,Belleville ,Illinois,38.513605,-89.985586
517,1005468,Bellevue Area Farmers Market,Bellevue,Iowa,42.262,-90.455
518,1001204,Bellevue Farmers Market,Bellevue,Michigan,42.44585,-85.018644
519,1002917,Bellevue Farmers Market,Bellevue,Washington,47.626000000000005,-122.20200000000001
520,1010259,Bellevue Farmers' Market,Bellevue,Nebraska,41.139604299999995,-95.8936715
521,1004973,Bellflower Farmers Market,Bellflower,California,33.8847,-118.134
522,1008140,Bellingham Farmers Market,Bellingham,Washington,48.75262,-122.46965700000001
523,1000940,Bellville Farmers Market,Bellville,Ohio,40.6198,-82.5116
524,1009929,Belmar Fresh Market,Lakewood,Colorado,39.7111007,-105.08135520000002
525,1005168,Belmond Area Farmers Market,Belmond,Iowa,42.8478,-93.6155
526,1011488,Belmont Certified Farmers' Market,Belmont,California,37.518817999999996,-122.273595
527,1002064,Belmont Farmers Market,Belmont,New York,42.2489416,-78.0565113
528,1009323,Belmont Farmers Market NC,Belmont,North Carolina,35.2572,-81.0437
529,1001640,Belmont Farmers' Market,Belmont,Massachusetts,42.396577,-71.1738075
530,1000530,Belton Farmers Market,Belton,South Carolina,34.5268,-82.49600000000001
531,1011363,Belton Farmers Market,Belton ,Missouri,38.808556,-94.52525200000001
532,1003956,Belvidere Farmer's Market,Belvidere,Illinois,42.272038,-88.861885
533,1009956,Belvidere NJ Farmer's Market,Belvidere,New Jersey,40.827259000000005,-75.07649599999999
534,1008877,Belvidere's Hometown Market,Belvidere,Illinois,42.256499100000006,-88.8403969
535,1008722,Bemidji Area Farmers Market,Bemidji ,Minnesota,47.469264,-94.87946600000001
536,1001316,Bemidji's Natural Choice Farmers Market,Bemidji,Minnesota,47.469337,-94.88060899999999
537,1007658,Bend Farmers Market,Bend,Oregon,44.06,-121.321
538,1001533,Benica Certified Farmers Market,Benicia,California,38.046215000000004,-122.161188
539,1018644,Bennet Farmers' Market,Bennet,Nebraska,40.680611999999996,-96.503262
540,1000934,Bennigton Township Farmers Market,Owosso,Michigan,43.0829,-84.1682
541,1012679,Bensenville French Market,Bensenville,Illinois,41.95608,-87.941926
542,1018646,Benson Farmers Market,Omaha,Nebraska,41.299388,-95.995047
543,1005543,Benson Mill Harvest Days,Stansbury Park,Utah,40.65062,-112.2973
544,1008920,Bensonhurst,Brooklyn,New York,40.615534999999994,-74.0109559
545,1009219,Benton City Community Market,Benton City,Washington,46.2634,-119.48700000000001
546,1000333,Benton Farmers Market,Benton,Illinois,39.4823,-90.363
547,1004458,Benton Farmers Market,Benton,Arkansas,34.5612,-92.5884
548,1010815,Benton Farmers' Market,Benton,Louisiana,32.69486,-93.737025
549,1005291,Benton Harbor Farmers Market,Benton Harbor,Michigan,42.115797,-86.454635
550,1012718,Bentonville Farmers Market - Saturday,Bentonville,Arkansas,36.3723485,-94.208816
551,1010940,Bentonville Farmers Market - Wednesday,Bentonville,Arkansas,36.330894,-94.225177
552,1012011,Berea Farmer's Market,Berea,Kentucky,37.5682107,-84.297477
553,1009491,Berkeley Lakeside Market,Berkeley Lake,Georgia,33.9851,-84.1883
554,1005183,Berkeley Springs Farmers Market,Berkeley Springs,West Virginia,39.624722,-78.22753399999999
555,1019005,Berkey Farmers Market,Berkey,Ohio,41.715538,-83.83941800000001
556,1007371,Berkshire - Rome Vendors' Market,Rome,New York,43.210056,-75.45830699999999
557,1004320,Berkshire Area Farmers Market,Lanesboro,Massachusetts,42.49,-73.207
558,1005773,Berkshire Grown Winter Farmers' Market Great Barrington,Great Barrington,Massachusetts,42.244139399999995,-73.3288593
559,1011835,Berkshire Grown Winter Farmers' Market- Williamstown,Williamstown,Massachusetts,42.708838799999995,-73.2035441
560,1001622,"Berkshire Harmony Downtown Pittsfield Farmers Markets, Music, and Creative Arts Fair",Pittsfield,Massachusetts,42.448217,-73.253489
561,1007659,Berlin  Farmers' Market,Berlin,Maryland,39.0641,-76.8194
562,1011942,Berlin Farmers & Artists Market,Berlin ,Wisconsin,43.968876,-88.942278
563,1012087,BERLIN FARMERS MARKET,Berlin,Connecticut,41.643845,-72.786014
564,1011252,Berlin Local Works Farmers' Market,Berlin ,New Hampshire,44.469527,-71.18306
565,1001424,Bernardston Farmers' Market,Bernardston,Massachusetts,42.6710011,-72.54895259999999
566,1011221,Bernice Garden Farmers' Market,Little Rock,Arkansas,34.7350179,-92.272565
567,1002802,Berrien County farmer's market,Nashville,Georgia,31.206709000000004,-83.245211
568,1010605,Berry's Produce & Country Market,Princeton ,Indiana,38.357541999999995,-87.58380600000001
569,1011447,Berryessa Farmers' Market,San Jose ,California,37.40204,-121.84736799999999
570,1004403,berryville farmers' market,berryville,Arkansas,36.364472,-93.567287
571,1011149,Berthoud Local Farmers Market,Berthoud,Colorado,40.305329,-105.08263600000001
572,1019707,Berwick Winter Farmers Market,Berwick,Maine,43.269956,-70.86243
573,1010832,Berwyn Township Farmer's Market,Berwyn,Illinois,41.84331029999999,-87.78828890000001
574,1019168,BESSEMER FARMERS MARKET,Bessemer,Alabama,33.40113,-86.95137
575,1019169,Bessemer Farmers Market at Medical West,Bessemer,Alabama,33.373082000000004,-86.99064399999999
576,1016774,Bethany Beach Farmers' Market,Bethany Beach ,Delaware,38.538292,-75.05740300000001
577,1005277,Bethany Farmers Market,Bethany,Connecticut,41.4385519,-72.9914827
578,1007052,Bethany Farmers Market,Bethany,Oklahoma,35.584,-97.5095
579,1010111,Bethany Farmers' Market,Bethany,Missouri,40.264977,-94.017747
580,1003666,Bethel Farmers Market,Bethel,Maine,44.412017999999996,-70.794075
581,1004386,Bethel Farmers Market,Bethel,Vermont,43.8444,-72.6461
582,1007462,Bethel Farmers Market,Bethel,Connecticut,41.4149,-73.3838
583,1000745,Bethesda - Farm Women's Market,Bethesda,Maryland,38.98105,-77.09232
584,1010406,Bethesda Central Farm Market,Bethesda ,Maryland,38.987028,-77.099203
585,1012494,Bethlehem Farmers' Market,Bethlehem,Pennsylvania,40.6098058,-75.37840290000001
586,1018161,Bettendorf Farmers' Market,Bettendorf ,Iowa,41.525159,-90.50198499999999
587,1005222,Better Lives Today Farmers' Market,Richland,Missouri,37.8569838,-92.4043396
588,1018779,Beverly Farmers Market,Beverly,Massachusetts,42.5469549,-70.8848378
589,1001460,Beverly Hills Farmers Market,Beverly Hills,California,34.074257,-118.39890700000001
590,1019765,Bexley Farmers Market,Bexley,Ohio,39.957135,-82.935745
591,1004627,Bibb County Farmers Market,Centreville,Alabama,32.9446,-87.1386
592,1005949,Big Bear Farmers Market,City of Big Bear Lake,California,34.260803,-116.86671399999999
593,1002540,Big Flats Community Market,,New York,40.6612,-73.945
594,1011915,Big Horn Basin Farmers Market Cody,Cody,Wyoming,44.524237899999996,-109.07420330000001
595,1011917,Big Horn Basin Farmers Market Powell,Powell,Wyoming,44.754203100000005,-108.7626956
596,1005765,Big Ivy Tailgate Market,Barnardsville,North Carolina,35.7599,-82.4319
597,1019338,Big Lake Farmers Market,Big Lake,Minnesota,45.333773,-93.758167
598,1019339,Big Lake Winter Farmers Market,Big Lake,Minnesota,45.329205,-93.747475
599,1007345,Big Rapids Farmers' Market,Big Rapids,Michigan,43.7046,-85.4752
600,1000700,Big Red Barn Farmers Market,Davenport,Washington,47.653904,-118.15001799999999
601,1005730,Big Sky Farmers Market,Big Sky,Montana,45.2598,-111.3103
602,1006345,Big Stone Gap Farmers Market,Big Stone Gap,Virginia,36.868181299999996,-82.7752448
603,1001879,Big Timber Farmers Market,Big Timber,Montana,45.8351,-109.956
604,1008121,Bigfork Farmers' Market Cooperative,Bigfork ,Montana,48.0736,-114.079439
605,1009854,Bigfork Farmers' Market Cooperative,Bigfork ,Montana,48.073931,-114.08025
606,1019591,Billerica Farmers Market,Billerica,Massachusetts,42.557646000000005,-71.269999
607,1018044,Birch Run Farmers' Market,Birch Run,Michigan,43.247801,-83.777762
608,1000443,Bird-in-Hand Farmers Market,Bird-in-Hand,Pennsylvania,40.1067,-76.0308
609,1010217,Birmingham Farmers Market,Birmingham ,Michigan,42.55157,-83.217619
610,1005217,Bisbee Farmers Market,Bisbee,Arizona,31.407193,-109.878248
611,1011692,Biscuits and Jam Farmers' Market,New Albany,Mississippi,34.494815,-89.010823
612,1011854,Bishop Farmers' Market - Eastern Sierra Certified Farmers Market,Bishop,California,37.362109000000004,-118.39743
613,1003485,Bishop Market,Bishop,California,37.3615,-118.398
614,1011037,BisMarket,Bismarck,North Dakota,46.803081,-100.796471
615,1003953,Bitner Vineyards Farmers Market,Caldwell,Idaho,43.6107,-116.815
616,1003954,Bitterroot Valley Growers Market,Florence,Montana,46.631315,-114.07621599999999
617,1009738,Bixler's Farmers Market (Ripley's farmers Market),Russellville,Ohio,38.852215,-83.799939
618,1001781,Black EagleFarmers' Market,Black Eagle,Montana,47.52653,-111.2743
619,1003939,Black Forest Farmers Market,Black Forest,Colorado,38.9977,-104.70100000000001
620,1000730,Black Hills Farmers Market Inc.,Rapid City,South Dakota,44.084724,-103.244279
621,1003085,Black Mountain Tailgate Market,Black Mountain,North Carolina,35.6208614,-82.3217446
622,1010440,Black River Falls Community Farmers' Market,Black River Falls ,Wisconsin,44.305681,-90.84648100000001
623,1010442,Black River Falls Downtown Farmer's Market,Black River Falls ,Wisconsin,44.294552,-90.850406
624,1002126,Black River Landing Farmers Market,Lorain,Ohio,41.4688,-82.1757
625,1012660,Black Seed Farmers Market,Worcester,Massachusetts,42.3154222,-71.77389029999999
626,1000254,Blacksburg Farmers Market,Blacksburg,Virginia,37.229248,-80.414503
627,1003393,Blackwell Farmer's Market,Blackwell,Oklahoma,36.79557,-97.28256
628,1009274,Blackwood Farmers' Market,Blackwood,New Jersey,39.8015,-75.0661
629,1001268,Bladen County Farmers Market,Elizabethtown,North Carolina,34.4178,-78.7351
630,1001916,Blair Farmers Market,Blair,Nebraska,41.5437,-96.1296
631,1012163,Blairstown Farmers' Market,Blairstown,New Jersey,40.982893,-74.955689
632,1001851,Blanchard Farmers' Market,Blanchard,Oklahoma,35.137966999999996,-97.659273
633,1002609,Bland County Farmers Market,Bland,Virginia,37.100871000000005,-81.11507399999999
634,1010004,Blasdell Farmers' Market,Blasdell,New York,42.795179,-78.82420400000001
635,1009512,Blendon Township Farmers Market,Westerville,Ohio,40.0968,-82.904
636,1011911,Bliss Farmer's Market,Bliss,Michigan,45.681307000000004,-84.883123
637,1000964,Block Island Farmers Market,Block Island,Rhode Island,41.179863,-71.579351
638,1017936,Bloomfield Community Farmers' Market,Bloomfield,Indiana,39.0262269,-86.937933
639,1007473,Bloomfield Farmers Market,Bloomfield,Connecticut,41.8299,-72.737
640,1005232,Bloomfield Farmers' Market,Bloomfield,Missouri,36.880682,-89.9298107
641,1011829,Bloomfield Saturday Market,Pittsburgh,Pennsylvania,40.459005,-79.944435
642,1001125,Blooming Prairie Farmers Market,Blooming Prairie,Minnesota,43.8717,-93.0535
643,1008070,Bloomingdale Farmers' Market,Washington,District of Columbia,38.9126037,-77.0121571
644,1000154,Bloomingrove Produce Auction,Shiloh,Ohio,40.9603,-82.5544
645,1018396,Bloomington Community Farmers' Market,"Bloomington, IN ",Indiana,39.170308399999996,-86.53694250000001
646,1018223,Bloomington Farmers Market,Bloomington,Minnesota,44.825873,-93.30107
647,1018563,Bloomington Winter Farmers' Market,Bloomington,Indiana,39.161531,-86.521677
648,1000208,Bloomsburg Farmers Market,Bloomsburg,Pennsylvania,41.00246,-76.457784
649,1002737,Blossom Hill Certified Farmers' Market,San Jose,California,37.256325,-121.860023
650,1005883,Blount County Farmers Market,Oneonta,Alabama,33.9443186670542,-86.47024042904378
651,1005708,Blountville Farmer's Market,Blountville,Tennessee,36.534047222222206,-82.3201083333333
652,1007661,Blowing Rock Fresh Market,Blowing Rock,North Carolina,36.1322,-81.6799
653,1008372,Blue Hill Farmers Market ,Blue Hill ,Maine,44.427436,-68.57713199999999
654,1009271,"Blue Moon Acres Farm Market- Pennington, NJ",Pennington,New Jersey,40.3467,-74.7885
655,1005223,Blue Springs Farmers Market,Blue Springs,Missouri,39.018373600000004,-94.2778137
656,1003675,Blue Water Farmers Market,St. Clair,Michigan,42.8332,-82.48299999999999
657,1001063,Bluebird Market,Thomaston,Georgia,32.8906,-84.3264
658,1005436,"Bluefield, VA Farmers Market",Bluefield,Virginia,37.251613,-81.27162
659,1008177,"Bluegrass Farmers' Market, Inc.",Lexington,Kentucky,38.014459,-84.419562
660,1010000,"Bluegrass Farmers' Market, Inc.",Lexington,Kentucky,38.016553,-84.555073
661,1004274,Bluegrass Global Growers Market,Louisville,Kentucky,38.178432,-85.763805
662,1008789,Bluelicks Farmers Market,Mount Olivet ,Kentucky,38.441814,-83.98544
663,1019372,Bluffton Farmers Market,Bluffton,Ohio,40.893082,-83.892721
664,1019440,Bluffton Farmers' & Artisans' Market,Bluffton,Indiana,40.743479,-85.172111
665,1006960,Blytheville Farmers Market,Blytheville,Arkansas,35.9273,-89.919
666,1018092,BMI Farmers' Market,Baltimore,Maryland,39.273864,-76.601326
667,1004074,Boalsburg Farmers Market,Boalsburg,Pennsylvania,40.780353999999996,-77.797107
668,1001617,Boaz Farmers Market,Boaz,Alabama,34.196,-86.1621
669,1018374,Boca Grande Farm & Fish Market,Boca Grande,Florida,26.741988,-82.25995400000001
670,1018134,Boca Raton GreenMarket,Boca Raton,Florida,26.345975,-80.086148
671,1006683,Bogert Farmers' Market,Bozeman,Montana,45.6752,-111.031
672,1018313,Boise Farmers Market,Boise City,Idaho,43.532957,-116.444084
673,1018316,BOISE FARMERS MARKET,Boise City,Idaho,43.60798,-116.19193
674,1002866,Bolan Farmers Market,Bolan,Iowa,43.3728,-93.1185
675,1005231,Bollinger County Farmers' Market,Marble Hill,Missouri,37.301952500000006,-89.9796801
676,1009168,Bolton Landing Chamber of Commerce Farmers' Market,Bolton Landing,New York,43.5564,-73.6563
677,1001513,Bonaparte Farmers Market,Bonaparte,Iowa,40.6979,-91.8019
678,1009399,Bondurant Farmers Market,Bondurant,Iowa,41.7015,-93.4632
679,1010517,Bonita Springs Farmers Market,Bonita Springs ,Florida,26.349458000000002,-81.80968299999999
680,1004185,Bonita Springs Lions Club Downtown Farmers Market,Bonita Springs,Florida,26.341100692749,-81.779296875
681,1018353,Bonner Springs Farmers' Market,Bonner Springs ,Kansas,39.055673,-94.88352900000001
682,1001840,Bonners Ferry Farmers Market,Bonners Ferry,Idaho,48.6961,-116.314
683,1003632,Boone County Farmers Market,Burlington,Kentucky,39.020084000000004,-84.699311
684,1005874,Boone County Farmers Market,Harrison,Arkansas,36.2304,-93.1079
685,1011796,Boone County Farmers Market,Columbia,Missouri,38.963621999999994,-92.372114
686,1006833,Boone Farmers Market Association,Boone,Iowa,42.062726,-93.879688
687,1012632,Boone Street Market,Jonesborough,Tennessee,36.295271,-82.471979
688,1012583,Booneville Community Market,Booneville ,Arkansas,35.1391229,-93.9219446
689,1001144,Booneville Farmers Market,Booneville,Arkansas,35.1477,-93.8518
690,1018036,Boonton Farmers Market,Boonton,New Jersey,40.905691,-74.41335
691,1001907,Boonville CFM,Boonville,California,39.0091,-123.368
692,1005908,Boonville Farmers Market,Boonville,New York,43.481778000000006,-75.344045
693,1019318,Boonville Farmers Market Inc,Boonville,Missouri,38.955643,-92.741591
694,1000953,Boordy Vineyards-Good Life Thursdays,Hydes,Maryland,39.4754,-76.4881
695,1002672,Bordentown City's Farmers Market,Bordentown,New Jersey,40.1456881,-74.70301579999999
696,1001016,Boring Farmer's Market,Boring,Oregon,45.431356,-122.373674
697,1007073,Boro Farmers Market,Endinboro,Pennsylvania,41.8923,-80.1507
698,1000101,Boro Park Greenmarket,Brooklyn,New York,40.633137,-73.99049699999999
699,1000293,Borrego Springs Chamber of Commerce Farmers Market,Borrego Springs,California,33.2566,-116.37799999999999
700,1011061,Boscobel Farmers Market,Boscobel ,Wisconsin,43.135847999999996,-90.707006
701,1012513,Bosque Farmers Market,Meridian ,Texas,31.922802700000002,-97.6573069
702,1006967,Boston Medical Center,Boston,Massachusetts,42.3352,-71.0747
703,1018794,Boston Public Market,Boston,Massachusetts,42.362262,-71.057376
704,1012593,Boston University Farmers Market,Boston,Massachusetts,42.350598,-71.10847
705,1006886,Boston/Prudential Center,Boston,Massachusetts,42.348,-71.0823
706,1019693,Botetourt Farmer's Market ,Daleville,Virginia,37.417795,-79.912646
707,1004298,Bothell Farmers Market,Bothell,Washington,47.782323,-122.221699
708,1018394,Bottineau Farmers Market,Bottineau,North Dakota,48.8262788,-100.4459433
709,1005438,Boulder Community Market,Boulder,Utah,37.9012,-111.425
710,1003353,Boulder County Farmers' Market - Longmont & Boulder,Longmont,Colorado,40.1534817,-105.1286563
711,1001526,Boulder Farmers Market,Boulder,Montana,46.238803999999995,-112.118022
712,1012335,Boulder Farmers Market ,Boulder,Colorado,40.015245,-105.27763799999998
713,1003794,Bound Brook Farmers Market,Bound Brook,New Jersey,40.5614,-74.5329
714,1003958,Bountiful Farmers Market,Bountiful,Utah,40.8884,-111.87799999999999
715,1001773,Bounty of the Barrens Farmers' Market - Summer,Glasgow,Kentucky,36.995979999999996,-85.912733
716,1001772,Bounty of the Barrens Farmers' Market - Winter,Glasgow,Kentucky,37.0100867,-85.9446468
717,1009259,Bourbon Farmers Market,Bourbon,Indiana,41.2966,-86.1185
718,1006980,Bourbon Farmers' Market,Bourbon,Missouri,38.1544686,-91.2462077
719,1002728,Bovill Farmers Market,Kendrick,Idaho,46.6771,-116.615
720,1004020,Bow Little Market,Burlington ,Washington,48.555683,-122.33509199999999
721,1009682,Bow Little Market Holiday Festival,Bow,Washington,48.595077,-122.36810700000001
722,1006542,Bowdoin Geneva Farmers' Market,Dorchester,Massachusetts,42.305816,-71.067939
723,1004534,Bowdoinham Farmers' Market,Bowdoinham,Maine,44.009997,-69.89648000000001
724,1009863,Bowie Farmers Market,Bowie,Texas,33.557334000000004,-97.85003
725,1019165,Bowie Farmers' Market,Bowie,Maryland,38.978320000000004,-76.741902
726,1008423,Bowling Green Community Farmers Market,Bowling Green ,Virginia,38.05177,-77.347563
727,1006911,Bowling Green Farmers' and Artists' Market,Bowling Green,Missouri,39.3421,-91.1948
728,1000066,Bowling Green Greenmarket,New York,New York,40.704587,-74.014313
729,1008806,Bowling Green's Original Farmers Market,Bowling Green,Kentucky,36.968788,-86.433927
730,1007556,Boyd County Farmers’ Market,Ashland,Kentucky,38.4248,-82.6995
731,1008808,Boyle County Farmers' Market,Danville,Kentucky,37.6494547,-84.7668198
732,1004174,Boylston Farmers Market,Boylston,Massachusetts,42.3529735,-71.7342857
733,1019205,Boyne City Farmers Market,Boyne City,Michigan,45.21685,-85.015378
734,1006498,Bozeman Winter Farmers' Market,Bozeman,Montana,45.67778,-111.0404
735,1000162,Bozrah Farmers Market,Bozrah,Connecticut,41.552172999999996,-72.16833100000001
736,1010329,BPMA at The Greenway,Boston,Massachusetts,42.362389,-71.057284
737,1012320,Bradenton Farmers' Market,Bradenton ,Florida,27.497222999999998,-82.57345
738,1006731,Bradford Farmers Market,Starke,Florida,29.9654,-82.104
739,1006913,Bradford Farmers Market,Bradford,New Hampshire,43.268863,-71.955407
740,1009876,Bradford Farmers Market,Bradford,Vermont,43.9984091,-72.1257698
741,1008629,Bradford Square Farmers' Market,Hopkinsville,Kentucky,36.8337026,-87.47376
742,1000023,Bradford Store,Huntersville,North Carolina,35.423328000000005,-80.7855537
743,1005051,Bradley County Farmers Market,Cleveland,Tennessee,35.1583,-84.8756
744,1010748,Brainerd Farmers Market,Chattanooga ,Tennessee,35.018474,-85.239727
745,1018227,Braintree Farmers Market,Braintree  ,Massachusetts,42.206437,-71.004927
746,1008830,Bramwell Farmers' Market,Bramwell ,West Virginia,37.325145,-81.313467
747,1007584,Branch Avenue in Bloom Farmers' Market,Temple Hills,Maryland,38.8388,-76.9461
748,1000156,Branch Brook Park Farmers Market,Newark,New Jersey,40.7626,-74.178
749,1008401,Branchport Farmers Market ,Branchport,New York,42.6012952,-77.1538342
750,1003465,Brandermill Green Market,Midlothian,Virginia,37.423101,-77.636606
751,1005714,Brandon Farmers Market,Brandon,Vermont,43.791861,-73.086312
752,1002178,Brandon Fresh Market,Brandon,Florida,27.9243,-82.2703
753,1012403,Branford Alps Farmers Market,Branford,Connecticut,41.273756,-72.833736
754,1007428,Branford Community Farmers Market,Branford,Florida,29.9646,-82.9316
755,1006926,Branson Farmers' Market,Branson,Missouri,36.6432316,-93.2182637
756,1002407,Brattleboro Area Farmers' Market,Brattleboro,Vermont,42.8499,-72.58407
757,1018461,Brattleboro Area Farmers' Market - Downtown Market,Brattleboro,Vermont,42.8509152,-72.5578678
758,1011075,Brattleboro WInter Farmers' Market,Brattleboro ,Vermont,42.850844,-72.56016600000001
759,1003052,Braxton County Tailgate Market,Gassaway,West Virginia,38.6753,-80.7719
760,1007663,Brazos Valley Farmers Market,Bryan,Texas,30.6744,-96.37
761,1003139,Brea Farmers Market,Brea,California,34.0391,-118.236
762,1007746,Breaux Bridge Farmers Market,Breaux Bridge,Louisiana,30.2807,-91.9014
763,1007558,Breckinridge County Farmers’ Produce Market,Hardinsburg,Kentucky,37.7683,-86.4585
764,1004819,Breezy Acres Orchard,Xenia,Ohio,39.6017,-83.9353
765,1017946,Bremen Farmers Market,Bremen,Indiana,41.446463,-86.147566
766,1018556,Bremerton Farmers Market,Bremerton,Washington,47.574253000000006,-122.62886599999999
767,1011349,Brentwood Farmers' Market,Brentwood,California,37.9326219,-121.6948205
768,1008611,Brevard County Farmers Market,Melbourne,Florida,28.160309,-80.666944
769,1003004,Brewer Farmers' Market,Brewer,Maine,44.7877,-68.7559
770,1005878,Brewster Farmers Market,Brewster,New York,41.43435,-73.573673
771,1001610,Brewton Farmers Market,Brewton,Alabama,31.1499,-87.0275
772,1003867,Brian Coyle Farmers Market,Minneapolis,Minnesota,44.9708,-93.2499
773,1006853,Briarcliff Village Farmers Market,Kansas City,Missouri,39.16961,-94.596733
774,1006305,Briargate Farmers Market,Colorado Springs,Colorado,38.824673,-104.840856
775,1008568,Brick District Farmers' Market,Fulton,Missouri,38.847359999999995,-91.947877
776,1011201,Brick Farmers' Market,Brick,New Jersey,40.059165,-74.110516
777,1018821,Brickell City Centre Farmers Market ,Miami ,Florida,25.767406,-80.192121
778,1004664,Bridge Street Farmers Market,Kingsville,Ohio,41.8977,-80.815
779,1005068,Bridge Street Farmers Market,Huntsville,Alabama,34.7174,-86.6745
780,1001519,Bridgeport Farmers Market,Bridgeport,West Virginia,39.308999,-80.232076
781,1002700,Bridgeport Farmers' Market,Bridgeport,Nebraska,41.671723,-103.09966
782,1011212,Bridges to Wellness Farm Stand,Rochester,New York,43.17067,-77.595833
783,1000781,Bridgeton Outdoor Market in the Culinary District - A community Farmers' Market,Bridgeton,New Jersey,39.4289861,-75.23435490000001
784,1007207,Bridgeview La Crosse Farmers Wednesday Market,La Crosse,Wisconsin,43.8574,-91.2436
785,1011242,Bridgeville Farmers Market,Bridgeville,Pennsylvania,40.36146779999999,-80.11089820000001
786,1019146,Bridgewater Farmer's Market,Bridgewater,New Jersey,40.588552,-74.60797600000001
787,1008382,Bridgton Farmers Market,Bridgton ,Maine,44.054125,-70.70772099999999
788,1009462,Briggs Chaney-Greencastle Farmers and Artisans Market,Silver Spring,Maryland,39.0781,-76.9436
789,1018756,Brigham City Farmers Market,Brigham City,Utah,41.510773,-112.01505700000001
790,1004823,Brighton Downtown Saturday Market,Brighton,Colorado,39.9879,-104.821
791,1003816,Brighton Farmers Market,Brighton,Michigan,42.5313,-83.7852
792,1005440,Brighton Farmers' Market,Rochester,New York,43.122690999999996,-77.567072
793,1003717,Brillion Farmers Market,Brillion,Wisconsin,44.1794,-88.0688
794,1005483,Brimfield at Hitchcock Free Academy,Brimfield,Massachusetts,42.122751,-72.199901
795,1003513,Brimfield Farmers Market,Kent,Ohio,41.1002,-81.3458
796,1000541,Brimhall CFM,Bakersfield,California,35.3696,-119.10799999999999
797,1007649,Bringing Home Grown to U 1,St. Louis,Missouri,38.63605,-90.244299
798,1007650,Bringing Homegrown to U 2,St. Louis,Missouri,38.63605,-90.244299
799,1007502,Bristol - Housing Authority Farmers’ Market,Bristol,Connecticut,41.693999999999996,-72.9273
800,1012058,Bristol County Agricultural High School,Dighton ,Massachusetts,41.835966,-71.112588
801,1004480,Bristol Farmers Market,Bristol,Wisconsin,42.5576,-88.0431
802,1007474,Bristol Farmers Market,Bristol,Connecticut,41.673,-72.9453
803,1000309,Bristol Farmers' Market,Bristol,Vermont,44.133497,-73.079252
804,1008017,Bristow Farmers Market,Bristow,Virginia,38.759276,-77.57579399999999
805,1010604,BRIT First Saturday Farmers Market,Fort Worth,Texas,32.741786,-97.36242800000001
806,1002198,Britt Farmers Market,Britt,Iowa,43.0963,-93.8018
807,1010335,Broad and Mt. Vernon ,Philadelphia,Pennsylvania,39.964040000000004,-75.16105300000001
808,1005301,Broad and Snyder Farmers' Market,Philadelphia,Pennsylvania,39.924274,-75.169505
809,1005321,Broad and South,Philadelphia,Pennsylvania,39.943649,-75.165366
810,1001493,Broad Branch Farmers Market,Washington,District of Columbia,38.9664,-77.0679
811,1018892,Broad Ripple Farmers Market,Indianapolis IN,Indiana,39.7817086,-86.138451
812,1019467,Broad St. Farmers Market,Providence ,Rhode Island,41.802051,-71.418983
813,1006306,Broadmoor Farmers Market,Colorado Springs,Colorado,38.7946126,-104.8336186
814,1009948,Broadway Farmers Market,Cleveland ,Ohio,41.461447,-81.64529399999999
815,1010385,Broadway Farmers Market,Tacoma,Washington,47.2551471,-122.4407752
816,1019257,Broadway Farmers Market,Broadway,Virginia,38.611375,-78.799904
817,1000821,Brockport Farmers Market,Brockport,New York,43.2153,-77.937
818,1007603,Brockton Fairgrounds Farmers Market,Brockton,Massachusetts,42.0725,-71.0433
819,1018260,Brockton Farmers Market at City Hall Plaza,Brockton,Massachusetts,42.082794,-71.018816
820,1018661,Broken Bow Farmers Market,Broken Bow ,Nebraska,41.402405,-99.623299
821,1006039,Bronson Winter Farmers' Market,Kalamazoo,Michigan,42.2849,-85.58200000000001
822,1000095,Bronx Borough Hall Greenmarket,Bronx,New York,40.826978999999994,-73.92260300000001
823,1012744,Bronxville Farmers Market,Bronxville,New York,40.9399964,-73.8377863
824,1006203,Bronzeville (Chicago) Farmers Market,Chicago,Illinois,41.8448,-87.6267
825,1019794,Bronzeville Growers Market,Columbus ,Ohio,39.97139,-82.976997
826,1005367,Brooke County Farmers Market - Follansbee ,Follansbee,West Virginia,40.3379157,-80.59491379999999
827,1000787,Brooke County Farmers Market - Wellsburg,Wellsburg,West Virginia,40.2510088,-80.63778190000001
828,1001097,Brookfield Farmers Market,Brookfield,Wisconsin,43.05782,-88.125619
829,1003988,Brookfield Farmers Market,Brookfield,Illinois,41.82308,-87.84114
830,1007361,Brookfield Farmers Market,Brookfield,Massachusetts,42.211439,-72.083026
831,1006915,Brookfield Farmers' Market,Brookfield,Missouri,39.784468700000005,-93.0735348
832,1002166,Brookhaven Farmers Market,Brookhaven,Mississippi,31.5772282,-90.4438653
833,1012726,Brookhaven Farmers Market,Brookhaven,Georgia,33.860129,-84.334721
834,1005482,Brookings Farmers Market,Brookings,South Dakota,44.308816,-96.79525799999999
835,1019527,BROOKINGS HARBOR FARMERS MARKET,Brookings ,Oregon,42.037301,-124.24496299999998
836,1018280,Brookland Tuesday Farmers Market,District of Columbia,District of Columbia,38.93441,-76.992642
837,1012257,Brookland's Monroe St Farmers Market,"Washington, DC",District of Columbia,38.933091,-76.99508900000001
838,1005212,Brooklin Farmers' Market,Brooklin,Maine,44.2676,-68.5672
839,1012091,Brookline Farmers' Market,Brookline ,Massachusetts,42.342195000000004,-71.123897
840,1000100,Brooklyn Borough Hall Greenmarket,Brooklyn,New York,40.6937227,-73.9903552
841,1000775,Brooklyn Farmers Market,Brooklyn,Wisconsin,42.8523,-89.369
842,1007767,Brooklyn FM,Brooklyn,Connecticut,41.7882,-71.95
843,1001371,Brooks Farm Market,Baker,Florida,30.5929,-91.1655
844,1002427,Brookside Farmers' Market,Kansas City,Missouri,39.013782,-94.59232800000001
845,1006584,Brookside Farmers' Market,Stockton,California,37.978811,-121.35946399999999
846,1008379,Brooksville Farmers' Market,Brooksville,Maine,44.34283,-68.737726
847,1018891,Brooksville Main Street Farmers Market,Brooksville,Florida,28.555079,-82.387877
848,1001086,Brookville Farmers Market,Brookville,Indiana,39.41449,-85.011762
849,1005909,Brookwood Farmers Market,Cumming,Georgia,34.1048891,-84.1899215
850,1012171,Broome County Regional Farmers Market,Binghamton,New York,42.128211,-75.90601099999999
851,1017989,Broomfield Farmers Market at Holy Comforter Episcopal Church,Broomfield,Colorado,39.928470000000004,-105.09006200000002
852,1001751,Brooten Farmers Market,Brooten,Minnesota,45.6496,-95.228
853,1005744,Brown County Farmers Market,Mt. Sterling,Illinois,39.9878,-90.7731
854,1009737,Brown County Farmers Market (Ripley Farmer's Market),Georgetown ,Ohio,38.8653546,-83.9044248
855,1009736,Brown County Farmers Market (Ripleys' Farmers Market),Mt Orab,Ohio,38.934226,-83.86771800000001
856,1018135,Brown Deer Farmers Market,Brown Deer,Wisconsin,43.181435,-87.961917
857,1019468,Brown University Farmers Market,Providence ,Rhode Island,41.823465999999996,-71.399886
858,1019727,Brownsburg Farmers Market,Brownsburg,Indiana,39.844272,-86.396445
859,1009721,Brownstown Farmers Market,Brownstown,Michigan,42.1504155,-83.26459679999999
860,1004188,"Brownstown, Indiana Farmer's Market",Brownstown,Indiana,38.8794,-86.053
861,1004405,Brownsville Community Farmers Market,New York City,New York,40.6653,-73.9098
862,1001326,Brownsville Farmers Market,Brownsville,California,39.457104,-121.283162
863,1001910,Brownsville Farmers Market,Brownsville,Oregon,44.393595,-122.98463999999998
864,1008036,Brownsville Farmers Market,Brownsville,Pennsylvania,40.021370000000005,-79.88809300000001
865,1006168,Brownsville Farmers' Market,Brownsville,Texas,25.911617,-97.494221
866,1008924,Brownsville Pitkin YM,Brooklyn,New York,40.6692495,-73.9135787
867,1008922,Brownsville Rockaway YM,Brooklyn,New York,40.662546,-73.908953
868,1006966,Brownwood Area Farmers Market,Brownwood,Texas,31.7084,-98.9906
869,1009204,Brownwood Farmers Market,Wildwood,Florida,28.8441,-82.0219
870,1017968,Bruce Community Farmers Market,Bruce,Wisconsin,45.455110100000006,-91.2746971
871,1000211,Bruceton Farmers' Market,Bruceton Mills,West Virginia,39.661,-79.6413
872,1000161,Bruceton Mills Farmers Market,Bruceton Mills,West Virginia,39.6587,-79.6412
873,1007142,Bruner's Gardens Farmers Market II,Rapid City,South Dakota,44.0831,-103.22399999999999
874,1016892,Brunswick Farmer's Market,Brunswick ,Maryland,39.312918200000006,-77.6269237
875,1006260,Brunswick Farmers Market,Brunswick,New York,42.753063,-73.620372
876,1008607,Brunswick-Topsham Land Trust Farmers' Market at Crystal Spring Farm,Brunswick,Maine,43.890786,-69.995923
877,1007369,Brush Farmers Market,Brush,Colorado,40.2549432,-103.63525209999999
878,1012625,Bryan House Farmers Market,Mission ,Texas,26.241991,-98.30536500000001
879,1008485,Bryn Mawr Farmers' Market,Bryn Mawr ,Pennsylvania,40.021097999999995,-75.317081
880,1011923,BTN Lake Nona Farmers Market,Orlando,Florida,28.384765,-81.246072
881,1006164,Buchanan Farmer' Market,Buchanan,Michigan,41.8272,-86.3596
882,1008472,Buckeye Acres Farmers' Market,Warrensburg,Missouri,38.850198,-93.72313299999999
883,1011832,Buckeye Farmer's Market,Buckeye,Arizona,33.4205344,-112.5421815
884,1009437,Buckfield Farmer's Market & Co op,Turner,Maine,44.2396,-70.2604
885,1001707,Buckhannon - Upshur Farmer's Market Association,Buckhannon,West Virginia,38.992638,-80.228348
886,1003921,Buckingham County Farmers Market,Buckingham,Virginia,37.5436,-78.4741
887,1009376,Buckland Farm Market,Warrenton,Virginia,38.7716,-77.6975
888,1019218,Buckroe Beach Farmers Market,Hampton,Virginia,37.041273,-76.29180699999999
889,1008953,Bucksport Bay Farmers' Market,Bucksport ,Maine,44.572635999999996,-68.796497
890,1005010,Buckwalters Farmers Market,Bluffton,South Carolina,32.2715,-80.9169
891,1000170,Buena Vista Community Market,Buena Vista,Virginia,37.7373,-79.3531
892,1006844,Buena Vista Farmers Market,Buena Vista,Colorado,38.8418,-106.133
893,1006166,Buffalo Center Farmers Market,Buffalo Center,Iowa,43.3858,-93.9466
894,1006993,Buffalo Farmers' Market,Buffalo,Missouri,37.642482,-93.08976290000001
895,1002305,Buffalo Main Street Market,Buffalo,Wyoming,44.3465,-106.699
896,1010621,Bunnell Farmers Market,Bunnell,Florida,29.491840999999997,-81.267257
897,1000843,Burbank Certified Farmers' Market,Burbank,California,34.1828004,-118.30797709999999
898,1001541,Burien Farmers Market,Burien,Washington,47.466953000000004,-122.340479
899,1019492,Burke ,Burke,Virginia,38.776990999999995,-77.263568
900,1018514,Burke Area Farmers Market,Burke,South Dakota,43.180731,-99.29266
901,1000503,Burke County Farmer's Market II,Valdese,North Carolina,35.742684999999994,-81.56479200000001
902,1019241,Burkesville Farmers Market,Burkesville ,Kentucky,36.788716,-85.372124
903,1009233,Burleson Farmers Market,Burleson,Texas,32.5426,-97.3239
904,1011375,Burlingame Farmers Market,Burlingame ,Kansas,38.750494,-95.835553
905,1005322,Burlingame Fresh Market Farmers Market,Burlingame,California,37.5773,-122.346
906,1007666,Burlington County Farmers Market,Moorestown,New Jersey,39.9853,-74.8951
907,1011402,Burlington Downtown Farmers Market,Burlington,North Carolina,36.093215,-79.435955
908,1005892,Burlington Farmers Market,Burlington,Kansas,38.195209999999996,-95.73878
909,1007475,Burlington Farmers Market,Burlington,Connecticut,41.7689,-72.9671
910,1012090,Burlington Farmers Market,Burlington ,Vermont,44.476556,-73.213445
911,1019316,Burlington Farmers Market,Burlington,Vermont,44.475885,-73.19664
912,1011043,Burlington Farmers' Market,Burlington ,Massachusetts,42.5037262,-71.1909468
913,1010100,Burlington New North End Farmers Market,Burlington ,Vermont,44.502415,-73.23953
914,1009303,Burnap's Farm Market & Garden Cafe,Sodus,New York,43.2637,-77.0639
915,1004249,Burnet Road Farmers' Market,Austin,Texas,30.4258,-97.7018
916,1008964,Burnett County Farmers' Markets - Alpha,Grantsburg,Wisconsin,45.772635,-92.542771
917,1012716,Burnett County Farmers' Markets - Grantsburg - Burnett Medical Center,Grantsburg,Wisconsin,45.774153000000005,-92.686157
918,1008967,Burnett County Farmers' Markets - Grantsburg - Library,Grantsburg,Wisconsin,45.776365000000006,-92.68023199999999
919,1008969,Burnett County Farmers' Markets - Siren,Siren,Wisconsin,45.783712,-92.38170500000001
920,1006194,Burney Certfied Farmers Market,Burney,California,40.8821,-121.664
921,1002006,Burney Wednesday Farmers Market,Redding,California,40.6783,-122.367
922,1004904,Burnsville Farmers Market II,Burnsville,Minnesota,44.771,-93.2741
923,1012559,Burnt Hills Farmers Market,Burnt Hills,New York,42.9085405,-73.8997429
924,1019799,Burrillville Farmers Market,Harrisville ,Rhode Island,41.967496000000004,-71.67712399999999
925,1007007,Burwell Farmers Market,Burwell,Nebraska,41.7817,-99.1332
926,1004868,Bush Farmers market,Bush,Louisiana,30.6088,-89.9001
927,1004727,Bushwick Farmers' Market,Brooklyn,New York,40.68543,-73.914932
928,1004730,Bushwick Farmers' Market Satellite Farm Stand,Brooklyn,New York,40.697454,-73.911992
929,1002567,"Butler County Farmers Market, Greenville, AL",Greenville,Alabama,31.830281,-86.61770899999999
930,1005485,Butler Farmers Market,Butler,Wisconsin,43.104857,-88.069654
931,1004214,Butler Plaza Satellite Market,Gainesville,Florida,29.6223,-82.3794
932,1001990,Butler Walkabout Farmers Market,Butler,Alabama,32.0938,-88.2376
933,1001362,Butte Farmers Market,Butte,Montana,46.01269,-112.5364
934,1010322,Buy Fresh Buy Local of North Carolina Farmers Market - Salisbury,Salisbury,North Carolina,35.6264636,-80.4806906
935,1010321,Buy Fresh Buy Local of North Carolina Farmers Market - Spencer,Spencer,North Carolina,35.6884453,-80.4342396
936,1007604,Buzzards Bay Farmers Market,Buzzards Bay,Massachusetts,41.7462,-70.6206
937,1008380,Byrd House Market,Richmond,Virginia,37.542026,-77.45393299999999
938,1005481,Byrne's Mill Farmers' Market,Byrne's Mill,Missouri,38.420242,-90.585022
939,1002617,Byron Farmer's Market,Byron Center,Michigan,42.812545,-85.72245600000001
940,1007741,C Street Market,Springfield,Missouri,37.2297034,-93.2900958
941,1010702,Cabool Area Farmers' Market,Cabool ,Missouri,37.123768,-92.096349
942,1009640,Cache Valley Gardeners' Market ,Logan ,Utah,41.7347646,-111.83565
943,1004248,Cadillac Area Farmers Market,Cadillac,Michigan,44.250855,-85.402114
944,1004299,Cadiz Trigg County Farmer's Market,Cadiz,Kentucky,36.862713,-87.83619
945,1004927,Cagan Crossings Farmers' Market,Clermont,Florida,28.355644,-81.678425
946,1002592,Cairo State Farmers Market,Cairo,Georgia,30.8884,-84.208
947,1004862,Cajun Farmers Market,Houma,Louisiana,29.594305300000002,-90.7272087
948,1003449,Calabasas Old Town Farmers Market,Calabasas,California,34.1587,-118.63600000000001
949,1001342,Caldwell County Farmers Market,Lenoir,North Carolina,35.9166,-81.5386
950,1002026,Caldwell Farmers Market,Caldwell,New Jersey,40.839983000000004,-74.275217
951,1005821,Caldwell Farmers Market,Caldwell,Idaho,43.665420000000005,-116.6892
952,1002113,Caledonia Farmers Market,Caledonia,Michigan,42.7842298,-85.5067032
953,1018262,Caledonia Farmers Market Association - Saturday,St. Johnsbury ,Vermont,44.416902,-72.016637
954,1018263,Caledonia Farmers Market Association - Winter,St. Johnsbury,Vermont,44.417208,-72.015393
955,1002174,Calera Farmers Market,Calera,Alabama,33.096,-86.76804
956,1010783,Calexico Farmers Market,Calexico,California,32.67585,-115.487132
957,1001554,Calgo Gardens Farmers Market,Lakewood,New Jersey,40.0553,-74.22399999999999
958,1003599,Calhoun City Farmers Market,Calhoun City,Mississippi,33.8546,-89.3129
959,1000532,Calhoun County Farmers Market,St. Matthews,South Carolina,33.6647,-80.7799
960,1001323,Calhoun County Farmers Market,Rockwell City,Iowa,42.3947,-94.6342
961,1002788,Calhoun County Farmers Market,Anniston,Alabama,33.666702,-85.831171
962,1003689,Calhoun County Farmers Market,Chloe,West Virginia,38.698875,-81.092427
963,1007348,California Avenue Farmers' Market,Palo Alto,California,37.4141716,-122.125309
964,1018459,California Farmers Market,California,Maryland,38.294523999999996,-76.499596
965,1009017,Calistoga Farmers Market,Calistoga ,California,38.578829,-122.58023100000001
966,1008263,Callaway Community Farmers' Market,Callaway,Florida,30.144992,-85.585966
967,1003561,Callaway Gardens Farmers Market,Pine Mountain,Georgia,32.847217,-84.846618
968,1002666,Callicoon Farmers Market,Callicoon,New York,41.765515,-75.058104
969,1002669,Callicoon Indoor Winter Farmers' Market,Callicoon,New York,41.76402,-75.0555
970,1003938,Calmar Farmers Market,Calmar,Iowa,43.1819,-91.8664
971,1004192,Calvert County Farmers Market - Barstow,Barstow,Maryland,38.522728,-76.617912
972,1004193,Calvert County Farmers Market - Prince Frederick,Prince Frederick,Maryland,38.558772,-76.597676
973,1004194,Calvert County Farmers Market - Solomons,Solomons,Maryland,38.324634,-76.46124499999999
974,1004482,Camanche Farmers Market,Camanche,Iowa,41.7939,-90.275
975,1010782,Camano Island Farmers Market,Camano Island,Washington,48.241385,-122.455221
976,1018257,Camarillo Hospice Certified Farmers Market,Camarillo ,California,34.216538,-119.04131100000001
977,1010081,Camas Farmer's Market,camas,Washington,45.587164,-122.402169
978,1001631,Cambria Farmers Market,Cambria,Wisconsin,43.543232399999994,-89.103246
979,1004898,Cambria Farmers Market,Cambria,California,35.5644,-121.096
980,1007349,Cambrian Park Farmers' Makret,San Jose,California,37.261812,-121.9314131
981,1006887,Cambridge Center Market,cambridge,Massachusetts,42.3628,-71.0873
982,1012479,Cambridge Central Square Farmers Market,Cambridge ,Massachusetts,42.365228,-71.1012855
983,1001638,Cambridge Farmers Market,Cambridge,Idaho,44.572846000000006,-116.678753
984,1001753,Cambridge Farmers Market,Isanti,Minnesota,45.586000000000006,-93.0094
985,1002969,Cambridge Main Street Farmers' Market,Cambridge,Maryland,38.574894,-76.072147
986,1010107,Cambridge Open Air Market,Cambridge,Wisconsin,43.004003999999995,-89.01634
987,1018781,Cambridge Valley Farmers Market,Cambridge,New York,43.0280128,-73.38137259999999
988,1002747,Cambridge/Kendall Square Main Street,Cambridge,Massachusetts,42.3623,-71.0889
989,1006890,Cambridgeport,Cambride,Massachusetts,42.3552,-71.111
990,1005216,Camden AHEC Farmers Market,Camden,New Jersey,39.942729,-75.119469
991,1004233,Camden Avenue Farmers Market,Salisbury,Maryland,38.340529,-75.610099
992,1000122,Camden Farmers Market,Minneapolis,Minnesota,45.035866999999996,-93.309374
993,1006182,Camden Farmers Market,Camden,Alabama,32.0051,-87.3034
994,1006675,Camden Farmers Market,Camden,Arkansas,33.5848,-92.8495
995,1002674,Camellia City Farmers Market,Olde Towne Slidell,Louisiana,30.28138,-89.788781
996,1018502,Cameron Park Farmers Market,La Crosse,Wisconsin,43.807526,-91.23334399999999
997,1003776,Cameron Park Wednesday Farmers' Market,Cameron Park,California,38.657728000000006,-120.97263999999998
998,1006428,Campbell County Farmers Market Association,Alexandria,Kentucky,38.977290999999994,-84.392748
999,1006429,Campbell County Farmers Market Association,Highland Heights,Kentucky,39.0282,-84.4521
1000,1009653,Campbell County Farmers Market Association,Newport,Kentucky,39.090154999999996,-84.492037
1001,1007356,Campbell Farmers' Market,Campbell,California,37.2871,-121.944
1002,1006978,Campton Farmers' Market,Campton,New Hampshire,43.850926,-71.64288499999999
1003,1006485,Canaan Farmers' Market,Canaan,Maine,44.7617,-69.5617
1004,1011170,Canaan Farmers' Market,Canaan,New Hampshire,43.646615000000004,-72.010402
1005,1009034,Canal District Farmers Market ,Worcester,Massachusetts,42.256235,-71.797436
1006,1009411,Canal Fulton Farmers Market ,Canal Fulton,Ohio,40.8822,-81.5686
1007,1019810,Canal Market District,Newark,Ohio,40.056585999999996,-82.401032
1008,1001214,Canal Winchester Farmers Market,Canal Winchester,Ohio,39.842,-82.8059
1009,1002058,Canandaigua Farmers Market,Canandaigua,New York,42.8854,-77.2785
1010,1002837,Canandaigua VA Medical Center Farmers Market,Canandaigua,New York,42.90080465376379,-77.27083817124371
1011,1006790,Canby Saturday Market,Canby,Oregon,45.2624984,-122.6939354
1012,1007034,cando farmers market,Cando,North Dakota,48.4848,-99.2052
1013,1003627,Cane River Green Market,Natchitoches,Louisiana,31.760976,-93.086021
1014,1011690,Cankdeska Cikana Community College Farmer's Market,Fort Totten,North Dakota,47.978245,-98.990303
1015,1012548,Cannon Beach Farmers Market,Cannon Beach ,Oregon,45.8898257,-123.96075379999999
1016,1008796,Cannon Park Community Market,Carterville,Illinois,37.7616326,-89.0956887
1017,1012038,Canoga Park Certified Farmers Market,canoga park,California,34.203746,-118.60161200000002
1018,1018360,Canon City Farmers Market,Canon City,Colorado,38.4729666,-105.43965
1019,1012636,Canterbury Community Farmers Market Association,Canterbury,New Hampshire,43.338273,-71.565515
1020,1009037,Canterbury Village Farmers Market ,Lake Orion,Michigan,42.784475,-83.239661
1021,1001172,Canton Farmers Market,Canton,Massachusetts,42.1766,-71.1246
1022,1001397,Canton Farmers Market,Canton,Georgia,34.236863,-84.490904
1023,1002869,Canton Farmers Market,Canton,Mississippi,32.613766999999996,-90.03572700000001
1024,1006495,Canton Farmers Market,canton,Illinois,40.5583,-90.0349
1025,1008518,Canton Farmers Market,Canton,New York,44.5955,-75.168835
1026,1019772,Canton Farmers Market,Canton,Michigan,42.308840999999994,-83.533591
1027,1009677,Canton Farmers Market and Heritage Crafts,Canton,North Carolina,35.531962,-82.840876
1028,1005101,Canton Farmers' Market,Canton,Ohio,40.801255700000006,-81.3775854
1029,1005102,Canton Farmers' Market,Canton,Ohio,40.79609,-81.40359699999999
1030,1007855,Canyon Lake CFM,Canyon Lake,California,33.6733,-117.25299999999999
1031,1010438,Canyonville Farmer's Market,Canyonville,Oregon,42.939199,-123.28331299999999
1032,1005325,Cape Ann Farmers Market,Gloucester,Massachusetts,42.612646000000005,-70.66579
1033,1005326,Cape Ann Farmers Market,Gloucester,Massachusetts,42.60567,-70.67753
1034,1018068,Cape Coral Farmers' Market,Cape Coral ,Florida,26.563733000000003,-81.95251400000001
1035,1006963,Cape Girardeau Farmers' Market,Cape Girardeau,Missouri,37.29629,-89.569613
1036,1005285,Cape Riverfront Market,Cape Girardeau,Missouri,37.302699,-89.519874
1037,1006275,Cape Vincent Farmers & Crafters Market,Cape Vincent,New York,44.1289,-76.3343
1038,1004444,Capital City Farmers Market,Pierre ,South Dakota,44.365983,-100.352653
1039,1006925,Capital City Farmers Market,Trenton,New Jersey,40.218627000000005,-74.763513
1040,1011930,Capital City Farmers Market,Dover,Delaware,39.1576541,-75.5262294
1041,1018446,Capital City Farmers Market - Indoor,Montpelier,Vermont,44.260358000000004,-72.574892
1042,1018443,Capital City Farmers Market - Outdoor,Montpelier,Vermont,44.260362,-72.577201
1043,1000314,Capital District Farmers Market in Menands,Menands,New York,42.694982,-73.718251
1044,1010194,Capital District Physicians' Health Plan Farmers Market,"Albany, NY",New York,42.685543,-73.80546600000001
1045,1003527,Capital Farmers Market I,Bismarck,North Dakota,46.7949,-100.75299999999999
1046,1018359,Capital Harvest on the Plaza,DC,District of Columbia,38.894748,-77.03025600000001
1047,1008481,Capital Regional Medical Center Farmers' Market,Jefferson City,Missouri,38.563511,-92.200082
1048,1004765,Capitan Farmers' Market,Capitan,New Mexico,33.545383,-105.57318400000001
1049,1003526,Capitol Farmers Market II,Bismarck,North Dakota,46.835,-100.772
1050,1000437,Capitol Hill Farmers Market,Des Moines,Iowa,41.5958,-93.6031
1051,1004165,Capitol Hill Farmers Market,Seattle,Washington,47.6156044,-122.31266799999999
1052,1004827,Capitol Market,Charleston,West Virginia,38.3525,-81.6284
1053,1016796,Capitol Midweek Farmers Market,Topeka ,Kansas,39.046813,-95.677761
1054,1009280,Capitol Riverfront Farmers Market at Canal Park,Washington,District of Columbia,38.8765,-77.0033
1055,1004700,Capitol View Farmers Market,Madison,Wisconsin,43.085699,-89.279478
1056,1002791,Captina Produce Auction,Barnesville,Ohio,39.9319,-81.1027
1057,1018579,Captiol Hill Farmers Market,Providence,Rhode Island,41.833418,-71.414641
1058,1018375,Captiva Island Farmers Market at South Seas Resort,Captiva Island,Florida,26.525178999999998,-82.190561
1059,1006857,Carbondale Community Friday Night Fair,Carbondale,Illinois,37.727425,-89.21672
1060,1003292,Carbondale Farmers Market,Carbondale,Colorado,39.400039,-107.21126299999999
1061,1005004,Carbondale Farmers Market,Carbondale,Pennsylvania,41.572266,-75.502489
1062,1011167,Carbondale Farmers' Market,Carbondale,Illinois,37.73023189999999,-89.243412
1063,1012654,Carefree Farmers Market,Carefree ,Arizona,33.8246683,-111.9217879
1064,1011204,Carencro Cultural District Farmers Market,Carencro,Louisiana,30.317346,-92.046885
1065,1003478,Caribou Farmers Market,Caribou,Maine,46.870637,-68.00056500000001
1066,1001447,Carlisle County Farmers Market,Bardwell,Kentucky,36.869,-89.0086
1067,1012670,Carlisle Farmer's Market,Carlisle,Iowa,41.494981,-93.486073
1068,1002284,Carlisle Farmers Market,Carlisle,Pennsylvania,40.1944,-77.1665
1069,1011230,Carlisle Farmers Market,Carlisle,Massachusetts,42.52476,-71.337766
1070,1004804,Carlsbad Downtown Farmers' Market,Carlsbad,New Mexico,32.420235,-104.228454
1071,1017923,Carlton County Farmers Market Carlton,Carlton,Minnesota,46.664573,-92.42868
1072,1017922,Carlton County Farmers Market Cloquet,Cloquet,Minnesota,46.710401,-92.457819
1073,1002693,Carlyle Courthouse Square Farmers Market,Carlyle,Illinois,38.61065,-89.367814
1074,1007367,Carmel Farmers Market,Carmel,Indiana,39.969429999999996,-86.13041
1075,1008450,Carmel Farmers Markets at the Barnyard Shopping Village,Carmel,California,36.9872756,-121.92703940000001
1076,1006651,Carnation Farmers Market,Carnation,Washington,47.648587,-121.912419
1077,1009038,Caro Farmers Market,Caro,Michigan,43.490938,-83.393464
1078,1010092,Carolina Beach Farmer's Market,Carolina Beach,North Carolina,34.029778,-77.895273
1079,1012028,Carolina Forest Farmers Market,Myrtle Beach ,South Carolina,33.7601724,-78.9601017
1080,1019417,Carolina fresh market and more,Pelzer ,South Carolina,34.641892,-82.4614
1081,1010106,Caroline Farmers Market,Brooktondale,New York,42.380903,-76.39336999999999
1082,1006968,Carondelet Farmers' Market,St. Louis,Missouri,38.5467,-90.2591
1083,1011610,Carousel Park Farmers Market,Wilmington,Delaware,39.734265,-75.683661
1084,1006696,Carpenteria CFM,Carpenteria,California,34.3976,-119.52
1085,1011740,Carrboro Farmers' Market,Carrboro,North Carolina,35.910879,-79.07759300000001
1086,1017930,Carrick Citparks Farmers Market,Pittsburgh ,Pennsylvania,40.400201,-79.988803
1087,1004738,Carroll County Farmer's Market,Westminster,Maryland,39.555942,-77.00017
1088,1004016,Carroll Farmers Market,Carroll,Iowa,42.0722,-94.8641
1089,1006021,Carroll Gardens Greenmarket,Brookyn,New York,40.680703,-73.99543
1090,1008322,Carrollton Farmers Market,Carrollton,Missouri,39.358096999999994,-93.496941
1091,1000808,"Carrollton, Illinois Chamber of Commerce Farmer's Market",Carrollton,Illinois,39.2994549,-90.40763270000001
1092,1006098,Carrolton Weekly Farmers Market,Carrolton,Ohio,40.571999999999996,-81.0869
1093,1019270,Carson  Farmers Market @ 3rd & Curry St. ,Carson City,Nevada,39.162787,-119.768216
1094,1000369,Carson Farmers Market,Carson,California,33.8316,-118.259
1095,1007563,Carter County Farmers’ Market,Grayson,Kentucky,38.332,-82.9037
1096,1001264,Carthage Farm & Craft Farmers Market,Carthage,New York,43.977,-75.6125
1097,1002722,Carthage Farmers Market,Carthage,Illinois,40.41271,-91.13503
1098,1007651,Carthage Farmers' Market,Carthage,Missouri,37.167703,-94.313535
1099,1002263,Cartwright Pavilion Farmers Market,Marshalltown,Iowa,42.0382,-92.9137
1100,1012093,Carver Farmers Market,Carver,Massachusetts,41.888852,-70.769182
1101,1012173,Cary Downtown Farmers Market,Cary,North Carolina,35.786968200000004,-78.78234429999999
1102,1009997,Cary Farmers Market,Cary,Illinois,42.208762899999996,-88.2387729
1103,1011489,Casa Larga Vineyards Farm to Table to Marketplace,Fairport,New York,43.0505711,-77.4318929
1104,1002636,Cascade Farmers Market,Cascade,Iowa,42.1376,-91.3408
1105,1002040,Cascade Locks Farmers & Artists market,Cascade Locks,Oregon,45.6698,-121.891
1106,1000566,Casco Farmers' Market,Casco,Maine,44.003917,-70.522297
1107,1008997,Case Western Reserve University Farmers Market,Cleveland ,Ohio,41.504893,-81.604037
1108,1006912,Cashiers Tailgate Market,Cashier,North Carolina,35.1106,-83.1013
1109,1007668,Cass County Farmers' Market,Adrian,Missouri,38.6591,-94.3725
1110,1007644,Cass Lake Farmers' Market,Cass Lake,Minnesota,47.382,-94.6109
1111,1009464,Cassopolis Farmers Market ,Cassopolis ,Michigan,41.9115,-86.0023
1112,1004317,Cassville Farmers Market,Cassville,Wisconsin,42.7262,-90.986
1113,1003586,Castine Farmers' Market,Castine,Maine,44.3903,-68.7983
1114,1011711,Castle Hills Farm To Market,Castle Hills ,Texas,29.534131,-98.5224
1115,1003143,"Castle Rock Farmers Market, aka Plum Creek Valley Farmers Market",Castle Rock,Colorado,39.3722755,-104.86002990000001
1116,1002900,Castleton Village Farmers' Market,Castleton,Vermont,43.6116,-73.1779
1117,1011460,Castro Certified Farmers' Market,San Francisco ,California,37.764428,-122.433102
1118,1007358,Castro Valley Farmers' Market,Castro Valley,California,37.6925557,-122.07393859999999
1119,1012399,"Caswell County Local Foods Council ""Caswell Farmers Market""",Semora,North Carolina,36.499339899999995,-79.15265500000001
1120,1007844,"CATALINA, Saturday Market",Tucson,Arizona,32.499,-110.925
1121,1008276,Catawba County Public Health Farmers Market,Hickory,North Carolina,35.712066,-81.26950699999999
1122,1007210,Catawba Farmers Market,Catawba,Wisconsin,45.5389,-90.4864
1123,1012444,Catawba Farms Farmers' Market,Newton,North Carolina,35.637794,-81.221788
1124,1019159,Catawba Valley Farmers Market,Catawba,Virginia,37.3835006,-80.1068482
1125,1011215,Cathedral Community Farm Stand,296 Flower City Park,New York,43.1931226,-77.6327462
1126,1003681,Catonsville Farmers Market,Catonsville ,Maryland,39.280704,-76.716714
1127,1002643,Catonsville Sunday Farmers Market,Catonsville,Maryland,39.272265000000004,-76.732893
1128,1003975,Catskill Region Farmers Market,Earlton,New York,42.2204,-73.8659
1129,1003323,Cavalier Farmers Market,Cavalier,North Dakota,48.7749,-97.7073
1130,1008732,Cave City Farmer's Market,Cave City,Kentucky,37.141409,-85.967205
1131,1002953,Cayucos Farmers Market,Cayucos,California,35.4454,-120.912
1132,1010163,Cazenovia Farmers Market,Cazenovia,New York,42.929771,-75.855241
1133,1009351,CCC Farmers Market In Bonanza ,Bonanza,Oregon,42.1987,-121.40799999999999
1134,1006846,CCFA Buena Vista Farmers Market ,Buena Vista,Colorado,38.842674,-106.12920700000001
1135,1006847,CCFA Salida Farmers Market ,Salida,Colorado,38.532657,-105.99412
1136,1005295,Cecil B. Moore Farmers' Market,Philadelphia,Pennsylvania,39.978617,-75.15670899999999
1137,1018146,Cecil County Farmers' Market - North East,North East ,Maryland,39.596555,-75.94171700000001
1138,1000690,Cedar City's Downtown Farmer's Market,Cedar City,Utah,37.679456,-113.06329099999999
1139,1000115,Cedar County Farmers Market,Tipton,Iowa,41.7647,-91.1361
1140,1008436,Cedar County Farmers' Market-El Dorado Springs,El Dorado Springs ,Missouri,37.860929,-94.011533
1141,1012616,Cedar Falls Farmers Market,Cedar Falls,Iowa,42.5359498,-92.4481584
1142,1012484,Cedar Mill Farmers Market,Portland,Oregon,45.5263877,-122.8141034
1143,1006003,Cedar St. Greenmarket,New York City,New York,40.7088,-74.0109
1144,1003488,Cedar Valley Farmers Market,Murphy,North Carolina,35.085834999999996,-84.03674699999999
1145,1002363,Cedar Valley Farmers Market I,Waterloo,Iowa,42.076,-93.5011
1146,1007208,Cedarburg Farmers Market,Cedarburg,Wisconsin,43.2955,-87.98700000000001
1147,1006849,Celebration Market in Sulphur Springs,Sulphur Springs,Texas,33.1382484,-95.6009552
1148,1003361,Celebration Sunday Farmers Market,Celebration,Florida,28.2478,-81.2879
1149,1019405,Celina Farmers' Market ,Celina,Ohio,40.549926,-84.57095
1150,1018734,Celina's Friday Night Market,Celina,Texas,33.3247511,-96.7869845
1151,1004680,Centennial Lakes Farmers Market,Edina,Minnesota,44.8669,-93.3264
1152,1001940,Center City Green Market,Charlotte,North Carolina,35.2263,-80.846
1153,2000001,Center for Design Practice - Mobile Farmers Market,,Maryland,,
1154,1001036,Center Market,Anchorage,Alaska,61.1881,-149.868
1155,1004624,Center Point Farmer's Market,Center Point,Alabama,33.6425,-86.6837
1156,1004625,CENTER POINT PARKWAY MARKET,CENTER POINT,Alabama,33.63,-86.6746
1157,1006984,Centerponite Mall’s Farmers Market,Grand Rapids,Michigan,42.9154,-85.5809
1158,1018800,Centerville Farmer's Market ,Warner Robins,Georgia,32.62481,-83.68635400000001
1159,1002359,Centerville Farmers Market,Centerville,Tennessee,35.7906,-87.4449
1160,1005393,Centerville Farmers Market,Centerville,Indiana,39.8195,-84.9963
1161,1010090,Centerville Farmers Market,Centerville,Ohio,39.61535,-84.15987559999999
1162,1012117,Centerville Farmers Market,Centerville,Delaware,39.821415,-75.616506
1163,1012449,CentraCare Health - Long Prairie Farmers Market ,Long Prairie ,Minnesota,45.972912,-94.849189
1164,1012589,CentraCare Health Family Farmers Market,St. Cloud ,Minnesota,45.581787,-94.20525
1165,1005208,Central Ave Farmers Market,Los angeles  California,California,34.0058,-118.256
1166,1006668,Central City Mainstreet Farmers Market,Central City,Iowa,42.201356,-91.52316400000001
1167,1005931,Central City Market,Huntington,West Virginia,38.4111,-82.4793
1168,1019465,Central Falls Farmers Market,Central Falls ,Rhode Island,41.890064,-71.39348100000001
1169,1019618,Central Kitsap Farmers Market,Silverdale,Washington,47.650238,-122.680109
1170,1010399,Central Market York,York ,Pennsylvania,39.963514399999994,-76.7295447
1171,1000352,Central NY Regional Market,Syracuse,New York,43.0727,-76.1684
1172,1003483,Central Park FM,Bakersfield,California,35.3761,-119.01100000000001
1173,1009725,Central Sarasota Farmers Market,Sarasota,Florida,27.286804999999998,-82.50025
1174,1007167,Central Texas Farmers Market,Manchaca,Texas,30.1364,-97.8554
1175,1001831,Central Valley Farmers Market,Merced,California,37.290616899999996,-120.480453
1176,1001832,Central Valley Farmers Market,Atwater,California,37.35376,-120.6299
1177,1003955,Centralia Farmers Market,Centralia,Illinois,38.5264,-89.1346
1178,1000799,Centreville Farmers' Market,Centreville,Maryland,39.044786,-76.06513000000001
1179,1011326,Centro Agropecuario de San Sebastian Puerto Rico (ADEA),San Sebastian,Puerto Rico,18.32878,-66.9706
1180,1004151,Centura College,Newport News,Virginia,37.1381,-76.5206
1181,1003440,Century City Farmers Market,Tarzana,California,34.0587,-118.416
1182,1002943,Ceres Farmer's Market,Ceres,California,37.5913,-120.955
1183,1010147,Cerritos Farmers Market,Cerritos ,California,33.869285,-118.06253799999999
1184,1011833,Certified Arkansas Farmers Market Argenta,North Little Rock ,Arkansas,34.759053,-92.2676408
